{
  "result": {
    "ReturnCode": 100,
    "ReturnMessage": "成功",
    "ReturnData": [
      {
        "Id": "e13b09b2-ad47-41f0-8bea-71c36d1beac8",
        "Name": "蔡師傅手工麵線",
        "Category": 2,
        "Phone": "082-362822",
        "Zipcode": "894",
        "City": "金門縣",
        "Area": "烈嶼鄉",
        "Address": "湖下27-1號",
        "Business": "11:00～19:30",
        "Evaluation": 0,
        "State": 0,
        "Latitude": 24.427146,
        "Longitude": 118.258289,
        "Icon": "http://taokehang.nqu.edu.tw/Upload/Store/7140ebf2-4f65-4563-aed5-a234755cf44c.jpeg",
        "IsTop": false,
        "Sort": 0,
        "BrowseCount": 8,
        "Collection": 0,
        "Remark": "",
        "SuggestDishes": "芋猶未盡、芋香飯、手工麵線",
        "AvgCost": 80,
        "Information": "一間以貨櫃屋搭成的店家，菜色、裝潢特別。",
        "FullAddress": "894金門縣烈嶼鄉湖下27-1號",
        "IsShowCollection": true,
        "IsCollection": false,
        "Distance": 12861554,
        "UpdateTime": "2018-03-15T09:26:26.1075516+08:00",
        "CreateTime": "2018-03-15T09:26:26.1075516+08:00"
      },
      {
        "Id": "90847690-d862-474f-b2fc-d87565e65c91",
        "Name": "山峯商店-王阿婆蚵仔煎",
        "Category": 2,
        "Phone": "082-352388",
        "Zipcode": "890",
        "City": "金門縣",
        "Area": "金沙鎮",
        "Address": "三山里山后村64號",
        "Business": "08:00～17:00",
        "Evaluation": 0,
        "State": 0,
        "Latitude": 24.503847,
        "Longitude": 118.440194,
        "Icon": "http://taokehang.nqu.edu.tw/Upload/Store/7ba1dc09-0908-4d51-bc2b-87b08ceeaf5b.JPG",
        "IsTop": false,
        "Sort": 0,
        "BrowseCount": 92,
        "Collection": 3,
        "Remark": "",
        "SuggestDishes": "蛋香、蛋狗、炒泡麵",
        "AvgCost": 70,
        "Information": "位於山后民俗文化村十八棟閩南式古厝，以石蚵小吃享譽金門!\r\n招牌美食「蚵仔煎」、「蚵仔麵線」、「高粱香腸」；\r\n特殊美食「蛋香」、「蛋狗」、「炒泡麵」。\r\n早期經營雜貨店鋪，因金門駐軍隊多，兼賣餐飲。",
        "FullAddress": "890金門縣金沙鎮三山里山后村64號",
        "IsShowCollection": true,
        "IsCollection": false,
        "Distance": 12877680,
        "UpdateTime": "2018-03-15T09:26:26.1075516+08:00",
        "CreateTime": "2018-03-15T09:26:26.1075516+08:00"
      },
      {
        "Id": "ef18ec2f-df19-4105-b7de-6f8cc7664d90",
        "Name": "金太武一條根本舖",
        "Category": 4,
        "Phone": "082-371853",
        "Zipcode": "893",
        "City": "金門縣",
        "Area": "金城鎮",
        "Address": "珠浦北路34號",
        "Business": "09:00～21:30",
        "Evaluation": 5,
        "State": 0,
        "Latitude": 24.434149,
        "Longitude": 118.319303,
        "Icon": "http://taokehang.nqu.edu.tw/Upload/Store/251b2ab3-1879-44df-9cb9-d92c67e6989c.jpeg",
        "IsTop": false,
        "Sort": 0,
        "BrowseCount": 48,
        "Collection": 1,
        "Remark": "",
        "SuggestDishes": "金門一條根精油膏、金門一條根滾珠凝露",
        "AvgCost": 300,
        "Information": "為了最好的品質，金太武一條根經過金門縣農試所品質認證，確保一條根來源為金門。另外更不計成本的在產品中投入最高含量的金門一條根，為了呈現最實在的金門一條根。",
        "FullAddress": "893金門縣金城鎮珠浦北路34號",
        "IsShowCollection": true,
        "IsCollection": false,
        "Distance": 12867421,
        "UpdateTime": "2018-03-15T09:26:26.1075516+08:00",
        "CreateTime": "2018-03-15T09:26:26.1075516+08:00"
      },
      {
        "Id": "5ed5bca9-e2f8-4b29-9300-fd64b5fbfc8d",
        "Name": "3Q脆皮雞排",
        "Category": 2,
        "Phone": "082-336305",
        "Zipcode": "891",
        "City": "金門縣",
        "Area": "金湖鎮",
        "Address": "中興路17號",
        "Business": "13:00～22:00",
        "Evaluation": 0,
        "State": 0,
        "Latitude": 24.432401,
        "Longitude": 118.314358,
        "Icon": "http://taokehang.nqu.edu.tw/Upload/Store/b678587b-6572-493f-a98b-4c4cb54b3c90.jpeg",
        "IsTop": false,
        "Sort": 0,
        "BrowseCount": 49,
        "Collection": 0,
        "Remark": "",
        "SuggestDishes": "脆皮雞排，脆皮杏包菇",
        "AvgCost": 50,
        "Information": "本店採用現點現炸，獨家特制脆皮包裹著鮮嫩多汁的雞排；口感獨特。回味無窮！",
        "FullAddress": "891金門縣金湖鎮中興路17號",
        "IsShowCollection": true,
        "IsCollection": false,
        "Distance": 12866974,
        "UpdateTime": "2018-03-15T09:26:26.1075516+08:00",
        "CreateTime": "2018-03-15T09:26:26.1075516+08:00"
      },
      {
        "Id": "0abbafd5-aa84-406b-88ba-f8ccc9158c8e",
        "Name": "海岸",
        "Category": 2,
        "Phone": "082-324297",
        "Zipcode": "893",
        "City": "金門縣",
        "Area": "金城鎮",
        "Address": "民族路115巷8號",
        "Business": "周一公休",
        "Evaluation": 0,
        "State": 0,
        "Latitude": 24.429903,
        "Longitude": 118.316765,
        "Icon": "http://taokehang.nqu.edu.tw/Upload/Store/18f8842e-1c00-49f3-b44b-bfc5e44a1f50.jpeg",
        "IsTop": false,
        "Sort": 0,
        "BrowseCount": 111,
        "Collection": 3,
        "Remark": "",
        "SuggestDishes": "火腿炒飯、內斯炒粄條、燴飯",
        "AvgCost": 60,
        "Information": "一口接一口，粒粒分明最對口，可以吃很飽，裡面賣的料理是以炒飯為主，還有粄條、燴飯、粥多種食物。",
        "FullAddress": "893金門縣金城鎮民族路115巷8號",
        "IsShowCollection": true,
        "IsCollection": false,
        "Distance": 12867272,
        "UpdateTime": "2018-03-15T09:26:26.1075516+08:00",
        "CreateTime": "2018-03-15T09:26:26.1075516+08:00"
      },
      {
        "Id": "c3c4d92d-45ef-4841-95ff-1dba652535d7",
        "Name": "如意 紅豆餅",
        "Category": 0,
        "Phone": "0985719237",
        "Zipcode": "893",
        "City": "金門縣",
        "Area": "金城鎮",
        "Address": "珠浦北路5巷12弄",
        "Business": "14:30~賣完",
        "Evaluation": 5,
        "State": 0,
        "Latitude": 24.4328,
        "Longitude": 118.320111,
        "Icon": "http://taokehang.nqu.edu.tw/Upload/Store/e0492732-cba9-4498-969e-ce3eddbba416.jpeg",
        "IsTop": false,
        "Sort": 0,
        "BrowseCount": 172,
        "Collection": 5,
        "Remark": "",
        "SuggestDishes": "玉米起司，菜脯，芋頭，柴魚沙拉",
        "AvgCost": 13,
        "Information": "成立在車站前的點心，完全已純手工製成，食材新鮮，起司濃厚，價錢統一均價，是一間用料實在的店。",
        "FullAddress": "893金門縣金城鎮珠浦北路5巷12弄",
        "IsShowCollection": true,
        "IsCollection": false,
        "Distance": 12867533,
        "UpdateTime": "2018-03-15T09:26:26.1075516+08:00",
        "CreateTime": "2018-03-15T09:26:26.1075516+08:00"
      },
      {
        "Id": "2026156f-f337-4c81-9e9a-33bdac3b694b",
        "Name": "牛二爺酒糟全牛海鮮料理館",
        "Category": 2,
        "Phone": "082-375377",
        "Zipcode": "893",
        "City": "金門縣",
        "Area": "金城鎮",
        "Address": "民權路125號",
        "Business": "11:00～14:00  17:00～21:00",
        "Evaluation": 0,
        "State": 0,
        "Latitude": 24.434418,
        "Longitude": 118.315988,
        "Icon": "http://taokehang.nqu.edu.tw/Upload/Store/6c87c34d-2cfb-4870-b298-cd05822e1ba5.jpeg",
        "IsTop": false,
        "Sort": 0,
        "BrowseCount": 93,
        "Collection": 1,
        "Remark": "",
        "SuggestDishes": "金門酒糟全牛料理 ",
        "AvgCost": 100,
        "Information": "本店2017年相當榮幸 榮獲“金門金字好店的殊榮”\r\n我們雖然不是老店 但我們師傅擁有20多年的餐飲資歷 中餐乙級技術士證照 衛生與安全值得您的信賴！\r\n\r\n我們店內的產品都是從原料製作而成的 \r\n\r\n不添加任何人工色素 也不添加防腐劑 \r\n\r\n純天然的製成方式 雖然比較耗工 \r\n\r\n但是師傅說 這樣的產品才能賣的放心吃的安心！我們店內從一碗牛肉麵一份炒飯一道料理 到一整桌的美味都是師傅精挑細選的食材才能擺上餐桌！我們師傅常常會到市場去收購新鮮的海產回來做無菜單的料理 師傅本身也相當熟悉金門地區特有的家鄉菜色 喜歡嘗鮮的朋友們歡迎詢問下單訂製！也歡迎有來金門遊玩的朋友到店",
        "FullAddress": "893金門縣金城鎮民權路125號",
        "IsShowCollection": true,
        "IsCollection": false,
        "Distance": 12867086,
        "UpdateTime": "2018-03-15T09:26:26.1075516+08:00",
        "CreateTime": "2018-03-15T09:26:26.1075516+08:00"
      },
      {
        "Id": "56b19d3c-95bd-4bd1-b28b-98bbd5565dde",
        "Name": "無底鍋火鍋",
        "Category": 2,
        "Phone": "082-328398",
        "Zipcode": "892",
        "City": "金門縣",
        "Area": "金寧鄉",
        "Address": "伯玉路一段218-6號",
        "Business": "平:18:00~24:00 假:多11~14",
        "Evaluation": 0,
        "State": 0,
        "Latitude": 24.435971,
        "Longitude": 118.327689,
        "Icon": "http://taokehang.nqu.edu.tw/Upload/Store/073c2d0c-6bc9-454b-9af6-4caa68bf5dde.PNG",
        "IsTop": false,
        "Sort": 0,
        "BrowseCount": 82,
        "Collection": 2,
        "Remark": "",
        "SuggestDishes": "麻辣紅湯、養生白湯",
        "AvgCost": 350,
        "Information": "金門第一家麻辣火鍋店，「無鍋底」取名為無鍋底聽說是希望客人都能把鍋內的每項單品都吃光，包含鍋底，才取這名字",
        "FullAddress": "892金門縣金寧鄉伯玉路一段218-6號",
        "IsShowCollection": true,
        "IsCollection": false,
        "Distance": 12868206,
        "UpdateTime": "2018-03-15T09:26:26.1075516+08:00",
        "CreateTime": "2018-03-15T09:26:26.1075516+08:00"
      },
      {
        "Id": "94bfbee9-8106-4450-a9f7-e16db55dea0e",
        "Name": "湶民水果創意料理",
        "Category": 3,
        "Phone": "082-324489",
        "Zipcode": "892",
        "City": "金門縣",
        "Area": "金寧鄉",
        "Address": "伯玉路2段224巷8號",
        "Business": "11:30~14:00   17:30~20:30   週一公休",
        "Evaluation": 0,
        "State": 0,
        "Latitude": 24.441293,
        "Longitude": 118.33593,
        "Icon": "http://taokehang.nqu.edu.tw/Upload/Store/4be47189-2f4d-4056-8a85-a2aa66eb964f.PNG",
        "IsTop": false,
        "Sort": 0,
        "BrowseCount": 82,
        "Collection": 3,
        "Remark": "",
        "SuggestDishes": "水果餐",
        "AvgCost": 300,
        "Information": "金門特色水果餐，當季水果入菜的無菜單料理，品質保證",
        "FullAddress": "892金門縣金寧鄉伯玉路2段224巷8號",
        "IsShowCollection": true,
        "IsCollection": false,
        "Distance": 12868892,
        "UpdateTime": "2018-03-15T09:26:26.1075516+08:00",
        "CreateTime": "2018-03-15T09:26:26.1075516+08:00"
      },
      {
        "Id": "a540c066-611e-405d-88e8-b434afc9abe9",
        "Name": "韓國炸雞",
        "Category": 2,
        "Phone": "0974027074",
        "Zipcode": "893",
        "City": "金門縣",
        "Area": "金城鎮",
        "Address": "金門高中對面",
        "Business": "15:30～22:00  週一公休",
        "Evaluation": 4.8,
        "State": 0,
        "Latitude": 24.43376,
        "Longitude": 118.31427,
        "Icon": "http://taokehang.nqu.edu.tw/Upload/Store/02766714-a21e-4c92-91d7-8bfce9f1ff69.jpeg",
        "IsTop": false,
        "Sort": 0,
        "BrowseCount": 169,
        "Collection": 6,
        "Remark": "",
        "SuggestDishes": "韓國道地炸雞、韓國特色小吃",
        "AvgCost": 80,
        "Information": "正宗的韓國手作料理\r\n歡迎您來品嘗",
        "FullAddress": "893金門縣金城鎮金門高中對面",
        "IsShowCollection": true,
        "IsCollection": false,
        "Distance": 12866932,
        "UpdateTime": "2018-03-15T09:26:26.1075516+08:00",
        "CreateTime": "2018-03-15T09:26:26.1075516+08:00"
      },
      {
        "Id": "1a3246ed-3988-42c2-b5fb-a8c8910d39e4",
        "Name": "王大夫一條根太湖店",
        "Category": 4,
        "Phone": "082-337116",
        "Zipcode": "891",
        "City": "金門縣",
        "Area": "金湖鎮",
        "Address": "太湖路二段209號",
        "Business": "09:00~21:00",
        "Evaluation": 5,
        "State": 0,
        "Latitude": 24.43895,
        "Longitude": 118.416275,
        "Icon": "http://taokehang.nqu.edu.tw/Upload/Store/321c7c16-b7c9-41b5-b88b-4f810e4df956.jpg",
        "IsTop": false,
        "Sort": 0,
        "BrowseCount": 56,
        "Collection": 1,
        "Remark": "",
        "SuggestDishes": "一擦靈酸痛油膏、一條根精萃舒緩貼(大)",
        "AvgCost": 300,
        "Information": "王大夫在台灣和金門有8間門市，包刮獨一無二的一條根文化館。王大夫秉持著傳承而來的仁德情懷。",
        "FullAddress": "891金門縣金湖鎮太湖路二段209號",
        "IsShowCollection": true,
        "IsCollection": false,
        "Distance": 12876896,
        "UpdateTime": "2018-03-15T09:26:26.1075516+08:00",
        "CreateTime": "2018-03-15T09:26:26.1075516+08:00"
      },
      {
        "Id": "bb087a78-89c1-4471-b864-a9cf7814dabd",
        "Name": "王大夫一條根文化館",
        "Category": 4,
        "Phone": "082-323311",
        "Zipcode": "892",
        "City": "金門縣",
        "Area": "金寧鄉",
        "Address": "伯玉路二段219號",
        "Business": "09:00~21:00",
        "Evaluation": 5,
        "State": 0,
        "Latitude": 24.440042,
        "Longitude": 118.335234,
        "Icon": "http://taokehang.nqu.edu.tw/Upload/Store/42d255d6-938d-4d06-b03c-4364c91815a2.PNG",
        "IsTop": false,
        "Sort": 0,
        "BrowseCount": 63,
        "Collection": 0,
        "Remark": "",
        "SuggestDishes": "一擦靈酸痛油膏、一條根精萃舒緩貼(大)\r\n",
        "AvgCost": 300,
        "Information": "王大夫在台灣和金門有8間門市，包刮獨一無二的一條根文化館。王大夫秉持著傳承而來的仁德情懷。",
        "FullAddress": "892金門縣金寧鄉伯玉路二段219號",
        "IsShowCollection": true,
        "IsCollection": false,
        "Distance": 12868854,
        "UpdateTime": "2018-03-15T09:26:26.1075516+08:00",
        "CreateTime": "2018-03-15T09:26:26.1075516+08:00"
      },
      {
        "Id": "f72e8c44-0bf9-4c5d-876d-03160b87f996",
        "Name": "樸樂咖啡",
        "Category": 3,
        "Phone": "082325272",
        "Zipcode": "892",
        "City": "金門縣",
        "Area": "金寧鄉",
        "Address": "頂堡52-8號",
        "Business": "11:00-21:00",
        "Evaluation": 0,
        "State": 0,
        "Latitude": 24.447495,
        "Longitude": 118.339078,
        "Icon": "http://taokehang.nqu.edu.tw/Upload/Store/9031e99e-9d42-4743-b2c8-bcf1f746607b.png",
        "IsTop": false,
        "Sort": 0,
        "BrowseCount": 203,
        "Collection": 7,
        "Remark": "",
        "SuggestDishes": "義大利麵、燉飯、烏龍麵",
        "AvgCost": 160,
        "Information": "樸樂咖啡 “樸實的快樂”\r\n濃郁咖啡、美味餐點、平價消費\r\n我們提供金門最棒的用餐環境\r\n私房料理、義大利麵、燉飯、烏龍麵、午茶、早午餐等等\r\n絕對值得您一試!!\r\n訂位專線：082-325272",
        "FullAddress": "892金門縣金寧鄉頂堡52-8號",
        "IsShowCollection": true,
        "IsCollection": false,
        "Distance": 12869053,
        "UpdateTime": "2018-03-15T09:26:26.1075516+08:00",
        "CreateTime": "2018-03-15T09:26:26.1075516+08:00"
      },
      {
        "Id": "5f581356-0450-49ec-947f-97a1ea2df074",
        "Name": "淨心園素膳坊",
        "Category": 5,
        "Phone": "082-321885",
        "Zipcode": "893",
        "City": "金門縣",
        "Area": "金城鎮",
        "Address": "西海路三段22巷74號",
        "Business": "10:00~",
        "Evaluation": 0,
        "State": 0,
        "Latitude": 24.418799,
        "Longitude": 118.310302,
        "Icon": "http://taokehang.nqu.edu.tw/Upload/Store/029238e1-0d26-4412-9734-28b8fd91a86f.jpg",
        "IsTop": false,
        "Sort": 0,
        "BrowseCount": 223,
        "Collection": 2,
        "Remark": "",
        "SuggestDishes": "素鬆飯、古早飯",
        "AvgCost": 60,
        "Information": "素食店，有免費的飲料與湯可使用",
        "FullAddress": "893金門縣金城鎮西海路三段22巷74號",
        "IsShowCollection": true,
        "IsCollection": false,
        "Distance": 12866902,
        "UpdateTime": "2018-03-15T09:26:26.1075516+08:00",
        "CreateTime": "2018-03-15T09:26:26.1075516+08:00"
      },
      {
        "Id": "3ddf666c-d339-4416-a14b-e25643266080",
        "Name": "甜水厝豆花店",
        "Category": 0,
        "Phone": "082371511",
        "Zipcode": "893",
        "City": "金門縣",
        "Area": "金城鎮",
        "Address": "莒光路60號",
        "Business": "12:00–21:00",
        "Evaluation": 0,
        "State": 0,
        "Latitude": 24.4338,
        "Longitude": 118.315714,
        "Icon": "http://taokehang.nqu.edu.tw/Upload/Store/d99b789c-0be4-457f-8351-37278e8b09ee.png",
        "IsTop": false,
        "Sort": 0,
        "BrowseCount": 97,
        "Collection": 1,
        "Remark": "",
        "SuggestDishes": "豆花、芋園、湯圓",
        "AvgCost": 40,
        "Information": "位於金門縣的一家傳統手工豆花店,使用非基因改造黃豆製做.\r\n自製配料有芋圓.地瓜圓.小湯圓.粉粿.粉角。",
        "FullAddress": "893金門縣金城鎮莒光路60號",
        "IsShowCollection": true,
        "IsCollection": false,
        "Distance": 12867074,
        "UpdateTime": "2018-03-15T09:26:26.1075516+08:00",
        "CreateTime": "2018-03-15T09:26:26.1075516+08:00"
      },
      {
        "Id": "84b5e27d-733a-4fc7-a6a5-b444660c59e6",
        "Name": "鮮茶道(金城)",
        "Category": 1,
        "Phone": "082-312146",
        "Zipcode": "890",
        "City": "金門縣",
        "Area": "金沙鎮",
        "Address": "中興路146巷29號",
        "Business": "09:00~22:00",
        "Evaluation": 4.6,
        "State": 0,
        "Latitude": 24.433208,
        "Longitude": 118.319746,
        "Icon": "http://taokehang.nqu.edu.tw/Upload/Store/dce9af11-2849-4ff4-8c45-800f9bbf7295.PNG",
        "IsTop": false,
        "Sort": 0,
        "BrowseCount": 105,
        "Collection": 1,
        "Remark": "",
        "SuggestDishes": "熊貓珍奶、日月潭紅玉拿鐵、檸檬cc",
        "AvgCost": 40,
        "Information": "我們深信：「作為主角的茶湯，怎能不是現沖」？唯有現點現沖，新鮮茶湯基底，才能帶出各式鮮果風味。我們希望鮮茶道presotea的每一杯茶飲都能帶給消費者新鮮與品質，一種不分年齡、不分個性都想要品飲的雋永自然風味。",
        "FullAddress": "890金門縣金沙鎮中興路146巷29號",
        "IsShowCollection": true,
        "IsCollection": false,
        "Distance": 12867487,
        "UpdateTime": "2018-03-15T09:26:26.1075516+08:00",
        "CreateTime": "2018-03-15T09:26:26.1075516+08:00"
      },
      {
        "Id": "0e621bab-7c2a-4b63-bfa5-46a278a28087",
        "Name": "八分舖 (金城)",
        "Category": 1,
        "Phone": "082-373911",
        "Zipcode": "893",
        "City": "金門縣",
        "Area": "金城鎮",
        "Address": "中興路146巷29號",
        "Business": "09:00~22:00",
        "Evaluation": 0,
        "State": 0,
        "Latitude": 24.433222,
        "Longitude": 118.319751,
        "Icon": "http://taokehang.nqu.edu.tw/Upload/Store/225a1f4b-3b5c-4e32-9d56-525825f6a5e8.jpg",
        "IsTop": false,
        "Sort": 0,
        "BrowseCount": 96,
        "Collection": 4,
        "Remark": "",
        "SuggestDishes": "百香綠茶、桂花烏龍、茉香綠茶",
        "AvgCost": 40,
        "Information": "八分舖\r\n是在地金門人自創的飲品店，\r\n唯一在金門才喝的到的口味，\r\n來金門就一定要喝八分舖飲品，\r\n沒來喝就等於沒來過金門~~~ ",
        "FullAddress": "893金門縣金城鎮中興路146巷29號",
        "IsShowCollection": true,
        "IsCollection": false,
        "Distance": 12867487,
        "UpdateTime": "2018-03-15T09:26:26.1075516+08:00",
        "CreateTime": "2018-03-15T09:26:26.1075516+08:00"
      },
      {
        "Id": "00d1d717-8ee0-43cc-bcab-df60c166df31",
        "Name": "清心福全(金城)",
        "Category": 1,
        "Phone": "082-375113",
        "Zipcode": "893",
        "City": "金門縣",
        "Area": "金城鎮",
        "Address": "民生路37之3號",
        "Business": "10:00–19:30",
        "Evaluation": 0,
        "State": 0,
        "Latitude": 24.435386,
        "Longitude": 118.319079,
        "Icon": "http://taokehang.nqu.edu.tw/Upload/Store/6d382a41-796b-478e-9d50-5d41ffc7b75a.jpg",
        "IsTop": false,
        "Sort": 0,
        "BrowseCount": 57,
        "Collection": 2,
        "Remark": "",
        "SuggestDishes": "多多綠、蜂蜜普洱鮮奶茶加珍珠、紅茶拿鐵",
        "AvgCost": 40,
        "Information": "清心福全企業集團秉持「誠信」、「用心」、「創新」、「惜福」之精神，力求務實經營、嚴謹管理、穩健成長、永續發展，不斷精進創發，歷久彌新，深耕台灣，弘揚台灣茶飲文化。",
        "FullAddress": "893金門縣金城鎮民生路37之3號",
        "IsShowCollection": true,
        "IsCollection": false,
        "Distance": 12867368,
        "UpdateTime": "2018-03-15T09:26:26.1075516+08:00",
        "CreateTime": "2018-03-15T09:26:26.1075516+08:00"
      },
      {
        "Id": "43474379-c711-4fa2-93af-4aeddb38d09e",
        "Name": "手作功夫茶(金城)",
        "Category": 1,
        "Phone": "082-371798",
        "Zipcode": "893",
        "City": "金門縣",
        "Area": "金城鎮",
        "Address": "中興路146巷12之1號",
        "Business": "10:00~22:00",
        "Evaluation": 4.5,
        "State": 0,
        "Latitude": 24.433542,
        "Longitude": 118.319433,
        "Icon": "http://taokehang.nqu.edu.tw/Upload/Store/ab6ae521-ca7c-4069-80df-2ff5c737accf.jpg",
        "IsTop": false,
        "Sort": 0,
        "BrowseCount": 60,
        "Collection": 1,
        "Remark": "",
        "SuggestDishes": "蜜香菊普奶、翠玉綠茶、四季春茶",
        "AvgCost": 40,
        "Information": "因為，在乎每一杯送到顧客手上的茶，\r\n所以，從基本功開始，\r\n堅持每一個成就好茶的程序，\r\n計較茶湯色澤，要求茶韻雋永，\r\n這種認真，是我們不變的態度。",
        "FullAddress": "893金門縣金城鎮中興路146巷12之1號",
        "IsShowCollection": true,
        "IsCollection": false,
        "Distance": 12867448,
        "UpdateTime": "2018-03-15T09:26:26.1075516+08:00",
        "CreateTime": "2018-03-15T09:26:26.1075516+08:00"
      },
      {
        "Id": "425f8b42-25c1-4835-b6ad-8cde35bc70aa",
        "Name": "CoCo都可",
        "Category": 1,
        "Phone": "082-371666",
        "Zipcode": "893",
        "City": "金門縣",
        "Area": "金城鎮",
        "Address": "民生路27巷5號",
        "Business": "10:00~21:30",
        "Evaluation": 0,
        "State": 0,
        "Latitude": 24.43473,
        "Longitude": 118.31932,
        "Icon": "http://taokehang.nqu.edu.tw/Upload/Store/8611a308-74f7-4736-8396-9a09b108fe20.jpg",
        "IsTop": false,
        "Sort": 0,
        "BrowseCount": 40,
        "Collection": 2,
        "Remark": "",
        "SuggestDishes": "奶茶三兄弟、芋頭鮮奶、巧克力珍珠奶茶",
        "AvgCost": 40,
        "Information": "採購全球優質食材，簽訂年度合約確保供貨穩定，為全球合作夥伴產品的質、量、價把關。採購系統遍及南非、荷蘭、泰國、印度、斯里蘭卡、印尼、厄瓜多爾、紐澳、智利和美國…等。",
        "FullAddress": "893金門縣金城鎮民生路27巷5號",
        "IsShowCollection": true,
        "IsCollection": false,
        "Distance": 12867408,
        "UpdateTime": "2018-03-15T09:26:26.1075516+08:00",
        "CreateTime": "2018-03-15T09:26:26.1075516+08:00"
      },
      {
        "Id": "40f810ff-5e7a-4dff-908c-4b5afa3ce41d",
        "Name": "50嵐",
        "Category": 1,
        "Phone": "082-375727",
        "Zipcode": "893",
        "City": "金門縣",
        "Area": "金城鎮",
        "Address": "中興路146巷18號",
        "Business": "11:00-21:00",
        "Evaluation": 0,
        "State": 0,
        "Latitude": 24.43377,
        "Longitude": 118.31925,
        "Icon": "http://taokehang.nqu.edu.tw/Upload/Store/9c308c23-463f-4509-b565-09ce59f78d4b.jpg",
        "IsTop": false,
        "Sort": 0,
        "BrowseCount": 60,
        "Collection": 3,
        "Remark": "",
        "SuggestDishes": "波霸奶茶、抹茶拿鐵、紅茶拿鐵",
        "AvgCost": 40,
        "Information": "一到炎熱的夏天，總讓人覺得心情煩燥，如果再加上流汗就更讓人覺得不舒服，最好的方式就是待在冷氣房裏，喝杯清涼的飲料，就整個讓人非常的清涼，在台灣有個很特殊的現像，各式飲品飲料店如同便利超商般的在各地開設，選擇性也是超多的，根據調查（網路上查得到的資料）顯示，台灣一年消耗的飲料達近1500萬頓，飲料業的產值達500億台幣，可見台灣人非常愛喝飲料，如雨後春筍般，各品牌飲料店也像開便利商店般在台灣各處開立，50嵐正是一個已經受肯定的飲料品牌。愛好飲品的一定不會錯過的一個飲料品牌。",
        "FullAddress": "893金門縣金城鎮中興路146巷18號",
        "IsShowCollection": true,
        "IsCollection": false,
        "Distance": 12867425,
        "UpdateTime": "2018-03-15T09:26:26.1075516+08:00",
        "CreateTime": "2018-03-15T09:26:26.1075516+08:00"
      },
      {
        "Id": "f8abbbc1-2b0a-410f-a517-2f1ca2cf1222",
        "Name": "田老爺燒臘",
        "Category": 2,
        "Phone": "082-371156",
        "Zipcode": "892",
        "City": "金門縣",
        "Area": "金寧鄉",
        "Address": "伯玉路一段220號",
        "Business": " 10:30~14:30    16:30~20:30",
        "Evaluation": 5,
        "State": 0,
        "Latitude": 24.435711,
        "Longitude": 118.327362,
        "Icon": "http://taokehang.nqu.edu.tw/Upload/Store/c184962d-365c-4303-b0ff-abd86089768a.PNG",
        "IsTop": false,
        "Sort": 0,
        "BrowseCount": 174,
        "Collection": 3,
        "Remark": "",
        "SuggestDishes": "香酥大排骨",
        "AvgCost": 60,
        "Information": "好吃的在地金門家常菜，菜色多樣又豐富，人人都可吃超飽",
        "FullAddress": "892金門縣金寧鄉伯玉路一段220號",
        "IsShowCollection": true,
        "IsCollection": false,
        "Distance": 12868180,
        "UpdateTime": "2018-03-15T09:26:26.1075516+08:00",
        "CreateTime": "2018-03-15T09:26:26.1075516+08:00"
      },
      {
        "Id": "6d570525-de8d-45ea-9ea2-458e138092b6",
        "Name": "御饌鼎皇臭臭鍋",
        "Category": 2,
        "Phone": "082-321375",
        "Zipcode": "893",
        "City": "金門縣",
        "Area": "金城鎮",
        "Address": "環島北路1段27號",
        "Business": "11:00-14:00          17:00-21:00",
        "Evaluation": 4.5,
        "State": 0,
        "Latitude": 24.441167,
        "Longitude": 118.32251,
        "Icon": "http://taokehang.nqu.edu.tw/Upload/Store/c4be4792-006f-462c-a839-d16dac46bfd7.PNG",
        "IsTop": false,
        "Sort": 0,
        "BrowseCount": 154,
        "Collection": 5,
        "Remark": "",
        "SuggestDishes": "臭臭鍋、麻辣鍋、養生鍋",
        "AvgCost": 130,
        "Information": "經營小火鍋店數年來，魏仁佑發揮工程師的精神及貴人的相助，終於研發出湯頭最佳配方，調製獨門的黃金比例的原味湯頭及正宗四川麻辣鍋湯頭，並在台東當地得到許多消費者的認可，在原加盟總店不允許自創鍋種及種種不合理的限制下，魏仁佑順勢放棄加盟，推出心目中韻釀已久的自我品牌《御饌．鼎皇》鼎沸思蜀啖麻辣，皇族養膳品天香，雖然每鍋只有親民的百元上下，但保証有如皇帝般用餐的滋味....。",
        "FullAddress": "893金門縣金城鎮環島北路1段27號",
        "IsShowCollection": true,
        "IsCollection": false,
        "Distance": 12867568,
        "UpdateTime": "2018-03-15T09:26:26.1075516+08:00",
        "CreateTime": "2018-03-15T09:26:26.1075516+08:00"
      },
      {
        "Id": "225c0d0c-1f73-4915-ae3a-3d979a64d839",
        "Name": "大呼過癮",
        "Category": 2,
        "Phone": "08-2375108",
        "Zipcode": "893",
        "City": "金門縣",
        "Area": "金城鎮",
        "Address": "民族路253之2號",
        "Business": "11：00～14：00      17：30～21：30",
        "Evaluation": 4.9,
        "State": 0,
        "Latitude": 24.429969,
        "Longitude": 118.315824,
        "Icon": "http://taokehang.nqu.edu.tw/Upload/Store/3d79e66b-8923-40fa-b0fa-d26d11594c9a.PNG",
        "IsTop": false,
        "Sort": 0,
        "BrowseCount": 77,
        "Collection": 5,
        "Remark": "",
        "SuggestDishes": "大腸臭臭鍋，醬燒豬牛羊，腸旺鴨血鍋",
        "AvgCost": 130,
        "Information": "古早的小火鍋，保持著傳統的湯頭，公道的價格配上新鮮的食材，優秀的老闆娘還有親切的服務生，被風吹過的人說不會寒，被雨淋濕的人說不會冷，一鍋火鍋，幾口冰，一碗白飯，幾杯飲，唯有四個字，大呼過癮。",
        "FullAddress": "893金門縣金城鎮民族路253之2號",
        "IsShowCollection": true,
        "IsCollection": false,
        "Distance": 12867178,
        "UpdateTime": "2018-03-15T09:26:26.1075516+08:00",
        "CreateTime": "2018-03-15T09:26:26.1075516+08:00"
      },
      {
        "Id": "24e2ab99-247d-40f0-ab8c-b7d9c28ac6f1",
        "Name": "富貴春北平烤鴨",
        "Category": 2,
        "Phone": "082-352287",
        "Zipcode": "890",
        "City": "金門縣",
        "Area": "金沙鎮",
        "Address": "中興街31巷10-1號",
        "Business": "082-352287",
        "Evaluation": 0,
        "State": 0,
        "Latitude": 24.490607,
        "Longitude": 118.412272,
        "Icon": "http://taokehang.nqu.edu.tw/Upload/Store/a2d4ead6-ee4b-4dc1-b391-1699d275d8a0.jpg",
        "IsTop": false,
        "Sort": 0,
        "BrowseCount": 106,
        "Collection": 1,
        "Remark": "",
        "SuggestDishes": "一鴨二吃",
        "AvgCost": 200,
        "Information": "即使遠在海外仍然能在金門一樣吃得到香噴噴的北京烤鴨。「富貴春」的烤鴨一鴨二吃，包含片皮鴨包荷葉餅以及炒鴨骨，僅提供外帶或外送。",
        "FullAddress": "890金門縣金沙鎮中興街31巷10-1號",
        "IsShowCollection": true,
        "IsCollection": false,
        "Distance": 12875243,
        "UpdateTime": "2018-03-15T09:26:26.1075516+08:00",
        "CreateTime": "2018-03-15T09:26:26.1075516+08:00"
      },
      {
        "Id": "05785593-9cbd-4681-b83c-2f6e862f02dc",
        "Name": "天摩山餐廳",
        "Category": 2,
        "Phone": "082-351328",
        "Zipcode": "890",
        "City": "金門縣",
        "Area": "金沙鎮",
        "Address": "榮光新村115-1號",
        "Business": "11:00~14:00       18:00~21:00",
        "Evaluation": 0,
        "State": 0,
        "Latitude": 24.52669,
        "Longitude": 118.415429,
        "Icon": "http://taokehang.nqu.edu.tw/Upload/Store/bc67a58f-3772-4883-9203-0c4325d60a02.jpg",
        "IsTop": false,
        "Sort": 0,
        "BrowseCount": 55,
        "Collection": 1,
        "Remark": "",
        "SuggestDishes": "高粱嗆蟹/生菜明蝦鬆/銀針沙蟲",
        "AvgCost": 200,
        "Information": "提供各式佳餚之外本店對於，小菜也要很用心，很有特色的菜色求新求變\r\n為各位顧客帶來不一樣的美食饗宴",
        "FullAddress": "890金門縣金沙鎮榮光新村115-1號",
        "IsShowCollection": true,
        "IsCollection": false,
        "Distance": 12874675,
        "UpdateTime": "2018-03-15T09:26:26.1075516+08:00",
        "CreateTime": "2018-03-15T09:26:26.1075516+08:00"
      },
      {
        "Id": "f91be0ec-2706-4acd-996e-74fc3effcc23",
        "Name": "高坑牛肉店",
        "Category": 2,
        "Phone": "082-352549",
        "Zipcode": "890",
        "City": "金門縣",
        "Area": "金沙鎮",
        "Address": "何斗里高坑38號",
        "Business": "10:00~14:00    16:30~20:00",
        "Evaluation": 0,
        "State": 0,
        "Latitude": 24.467032,
        "Longitude": 118.394079,
        "Icon": "http://taokehang.nqu.edu.tw/Upload/Store/ef16b6b3-c544-49e7-9a69-f00d2c150b98.jpg",
        "IsTop": false,
        "Sort": 0,
        "BrowseCount": 39,
        "Collection": 3,
        "Remark": "",
        "SuggestDishes": "什錦拼盤/水晶凍肉/蔥爆牛肉",
        "AvgCost": 200,
        "Information": "高坑飲食部源起於西元1973年是由第一代老闆的父親掌管經營，因為西元1973年時金門正處於軍管嚴時期及重要軍事戰地，所以金門皆處駐軍隊，每當假日阿兵哥便到小吃店消費用餐。\r\n高坑牛肉店創始人老闆陳雅商先生，由於老闆兄弟眾多，家境生活困苦，所以想要接受教育根本是不可能的事且早期金門為重要的軍事戰地，又加上兩岸對立下，政府為了隱固軍力，金門政府大力鼓吹召兵，所以老闆為了求溫飽而入伍受訓，而就讀第三士校。後來因為需要養家糊口, 發現繼續在軍中發展困難，為了求溫飽, 所以決定退伍，學得一技之長。毅然決然於西元1975年退伍，退伍後做過其他的工作但是並不順利。也由於家境困苦上有父母，下有弟妹，老闆必須負起家中生計，所以遠赴台北求職而進入餐廳打工糊口，由於老闆認真負責，肯學習又能吃苦態度，後來獲得當時任職餐廳老闆的賞識因而有機會進入廚房，開始學習基礎切菜、烹煮料理，經由老師傅嚴格指導每一項料理廚藝的能力，通過每一項嚴厲的訓練，進而能獨立自主掌廚，料理出美味的料理。\r\n",
        "FullAddress": "890金門縣金沙鎮何斗里高坑38號",
        "IsShowCollection": true,
        "IsCollection": true,
        "Distance": 12874018,
        "UpdateTime": "2018-03-15T09:26:26.1075516+08:00",
        "CreateTime": "2018-03-15T09:26:26.1075516+08:00"
      },
      {
        "Id": "22ae20bb-9113-48cb-9374-60cb5224f428",
        "Name": "可可坊",
        "Category": 2,
        "Phone": "082-363550",
        "Zipcode": "894",
        "City": "金門縣",
        "Area": "烈嶼鄉",
        "Address": "西宅48-1號",
        "Business": "11:00~14:00 17:00~19:30",
        "Evaluation": 0,
        "State": 0,
        "Latitude": 24.424687,
        "Longitude": 118.247602,
        "Icon": "http://taokehang.nqu.edu.tw/Upload/Store/ff610b59-2767-4b1a-b58f-76f2c56fbb08.jpg",
        "IsTop": false,
        "Sort": 0,
        "BrowseCount": 45,
        "Collection": 0,
        "Remark": "",
        "SuggestDishes": "炒飯/雞排飯",
        "AvgCost": 80,
        "Information": "店內也有販售冷(熱)飲，另外餐點都是現煮的，來到小金門絕不能錯過這間當地大力推薦的美食，尤其是他的炒飯更是被稱為必點的一道佳餚。",
        "FullAddress": "894金門縣烈嶼鄉西宅48-1號",
        "IsShowCollection": true,
        "IsCollection": false,
        "Distance": 12860556,
        "UpdateTime": "2018-03-15T09:26:26.1075516+08:00",
        "CreateTime": "2018-03-15T09:26:26.1075516+08:00"
      },
      {
        "Id": "45d6e8f5-4b12-49db-ab84-0cce27fe92c5",
        "Name": "加油站餐飲",
        "Category": 2,
        "Phone": "082-332385",
        "Zipcode": "891",
        "City": "金門縣",
        "Area": "金湖鎮",
        "Address": "自強路8號",
        "Business": "10:00~14:00             16:30~19:30       週四沒有營業下午",
        "Evaluation": 0,
        "State": 0,
        "Latitude": 24.441032,
        "Longitude": 118.415728,
        "Icon": "http://taokehang.nqu.edu.tw/Upload/Store/154ea2e3-6e66-4cfe-b177-b31e013a8ab9.jpg",
        "IsTop": false,
        "Sort": 0,
        "BrowseCount": 55,
        "Collection": 2,
        "Remark": "",
        "SuggestDishes": "排骨飯,魚排飯,蔥爆牛肉面\r\n",
        "AvgCost": 90,
        "Information": "這家的排骨飯好吃。",
        "FullAddress": "891金門縣金湖鎮自強路8號",
        "IsShowCollection": true,
        "IsCollection": false,
        "Distance": 12876791,
        "UpdateTime": "2018-03-15T09:26:26.1075516+08:00",
        "CreateTime": "2018-03-15T09:26:26.1075516+08:00"
      },
      {
        "Id": "df33a2d7-8c44-4632-b4fb-01c8817a0633",
        "Name": "海園餐廳",
        "Category": 2,
        "Phone": "082-362149",
        "Zipcode": "894",
        "City": "金門縣",
        "Area": "烈嶼鄉",
        "Address": "羅厝1號",
        "Business": "11:00~14:30 17:00~22:00",
        "Evaluation": 0,
        "State": 0,
        "Latitude": 24.424687,
        "Longitude": 118.260463,
        "Icon": "http://taokehang.nqu.edu.tw/Upload/Store/33f231b5-b272-4187-81ad-3072f2847613.jpg",
        "IsTop": false,
        "Sort": 0,
        "BrowseCount": 20,
        "Collection": 1,
        "Remark": "",
        "SuggestDishes": "梅干扣肉/干貝燉肉/石頭蚵仔豆腐",
        "AvgCost": 500,
        "Information": "「海園餐廳」是小金門羅厝港旁一間三層樓的餐廳，因為地利之便，許多團體客都在此地用餐。",
        "FullAddress": "894金門縣烈嶼鄉羅厝1號",
        "IsShowCollection": true,
        "IsCollection": false,
        "Distance": 12861828,
        "UpdateTime": "2018-03-15T09:26:26.1075516+08:00",
        "CreateTime": "2018-03-15T09:26:26.1075516+08:00"
      },
      {
        "Id": "43b0662f-1d0e-418a-a480-0ca5dc78624f",
        "Name": "紅高梁竹葉貢糖",
        "Category": 4,
        "Phone": "082-363355",
        "Zipcode": "894",
        "City": "金門縣",
        "Area": "烈嶼鄉",
        "Address": "青岐80之3號",
        "Business": "10:00~18:00",
        "Evaluation": 0,
        "State": 0,
        "Latitude": 24.417994,
        "Longitude": 118.223136,
        "Icon": "http://taokehang.nqu.edu.tw/Upload/Store/169229c9-6892-4a8a-b0ae-d09f4b0039b6.jpg",
        "IsTop": false,
        "Sort": 0,
        "BrowseCount": 80,
        "Collection": 1,
        "Remark": "",
        "SuggestDishes": "高粱酒冰淇淋/芋頭冰淇淋  ",
        "AvgCost": 30,
        "Information": "這間位於小金門的紅高梁竹葉貢糖名店也有賣冰品，主打高粱和芋頭口味，其中高粱口味嘗起來有股淡淡的高粱香氣，但沒有刺鼻的酒精味，這款冰品不管，愛不愛飲酒的朋友都適合來品嘗。",
        "FullAddress": "894金門縣烈嶼鄉青岐80之3號",
        "IsShowCollection": true,
        "IsCollection": false,
        "Distance": 12858296,
        "UpdateTime": "2018-03-15T09:26:26.1075516+08:00",
        "CreateTime": "2018-03-15T09:26:26.1075516+08:00"
      },
      {
        "Id": "45274b7d-659e-40f0-8f51-8dd2c5fa3348",
        "Name": "八方雲集",
        "Category": 2,
        "Phone": "082-335504",
        "Zipcode": "891",
        "City": "金門縣",
        "Area": "金湖鎮",
        "Address": "中正路24號",
        "Business": "11:00~13:00               16:00~19:00          周二公",
        "Evaluation": 4.5,
        "State": 0,
        "Latitude": 24.44058,
        "Longitude": 118.416112,
        "Icon": "http://taokehang.nqu.edu.tw/Upload/Store/729a6d7a-f209-4b4e-a184-1e406bdadc13.jpg",
        "IsTop": false,
        "Sort": 0,
        "BrowseCount": 28,
        "Collection": 1,
        "Remark": "",
        "SuggestDishes": "招牌鍋貼,招牌水餃,咖哩鍋貼\r\n",
        "AvgCost": 0,
        "Information": "八方雲集創立時即秉持「利他、分享、公益」的初衷，協助肯努力工作的弱勢者開創生機，這個汗流浹背的行業，雖無暴利，卻得以全家溫飽；我們願與全體夥伴攜手併進，為消費者提供「安全、新鮮、美味、平價」的食品，讓庶民飲食也能帶給社會一分溫暖與幸福。",
        "FullAddress": "891金門縣金湖鎮中正路24號",
        "IsShowCollection": true,
        "IsCollection": false,
        "Distance": 12876840,
        "UpdateTime": "2018-03-15T09:26:26.1075516+08:00",
        "CreateTime": "2018-03-15T09:26:26.1075516+08:00"
      },
      {
        "Id": "79b695fc-da62-4236-a158-322a08467be0",
        "Name": "石果軒",
        "Category": 3,
        "Phone": "082-362102",
        "Zipcode": "894",
        "City": "金門縣",
        "Area": "烈嶼鄉",
        "Address": "南塘4之3",
        "Business": "8:00~賣完為止",
        "Evaluation": 0,
        "State": 0,
        "Latitude": 24.424037,
        "Longitude": 118.23812,
        "Icon": "http://taokehang.nqu.edu.tw/Upload/Store/5aa37d7f-4443-473b-83dd-5784766d4845.jpg",
        "IsTop": false,
        "Sort": 0,
        "BrowseCount": 69,
        "Collection": 1,
        "Remark": "",
        "SuggestDishes": "香蛋",
        "AvgCost": 50,
        "Information": "小金門邊走邊吃的美食-南塘石果軒\"香蛋\"，讓人費疑猜的名字，簡單形容就是包著麵皮的香腸+蛋，也是軍友懷念的美食之一。",
        "FullAddress": "894金門縣烈嶼鄉南塘4之3",
        "IsShowCollection": true,
        "IsCollection": false,
        "Distance": 12859633,
        "UpdateTime": "2018-03-15T09:26:26.1075516+08:00",
        "CreateTime": "2018-03-15T09:26:26.1075516+08:00"
      },
      {
        "Id": "adfcfa5b-7f52-4f4a-83f9-aa3eaee6da7d",
        "Name": "小金咖啡日式拉麵店",
        "Category": 1,
        "Phone": "0905815878",
        "Zipcode": "894",
        "City": "金門縣",
        "Area": "烈嶼鄉",
        "Address": "黃埔村后頭30號",
        "Business": "09:00~20:00",
        "Evaluation": 0,
        "State": 0,
        "Latitude": 24.44011,
        "Longitude": 118.260239,
        "Icon": "http://taokehang.nqu.edu.tw/Upload/Store/3ddbce8f-976a-460e-b0f4-fc49faf50c32.jpg",
        "IsTop": false,
        "Sort": 0,
        "BrowseCount": 51,
        "Collection": 0,
        "Remark": "",
        "SuggestDishes": "招牌咖啡/拿鐵咖啡/美式咖啡",
        "AvgCost": 50,
        "Information": "位於烈嶼巷子內的小小咖啡店，歡迎大家常來！\r\n肚子餓了也可以點一碗拉麵，搭配咖啡。",
        "FullAddress": "894金門縣烈嶼鄉黃埔村后頭30號",
        "IsShowCollection": true,
        "IsCollection": false,
        "Distance": 12861433,
        "UpdateTime": "2018-03-15T09:26:26.1075516+08:00",
        "CreateTime": "2018-03-15T09:26:26.1075516+08:00"
      },
      {
        "Id": "3ef4748d-e279-4b3a-be2d-f2cd34028a73",
        "Name": "京站小吃",
        "Category": 2,
        "Phone": "082-363387",
        "Zipcode": "894",
        "City": "金門縣",
        "Area": "烈嶼鄉",
        "Address": "西方1-1號",
        "Business": "",
        "Evaluation": 0,
        "State": 0,
        "Latitude": 24.434337,
        "Longitude": 118.238444,
        "Icon": "http://taokehang.nqu.edu.tw/Upload/Store/9a5eb18d-23f9-4301-8c4e-c7b417dbae14.jpg",
        "IsTop": false,
        "Sort": 0,
        "BrowseCount": 62,
        "Collection": 1,
        "Remark": "",
        "SuggestDishes": "快炒/牛肉麵 /牛肉飯",
        "AvgCost": 90,
        "Information": "料豐味美，在地的好手藝，胖阿姨的京站小吃",
        "FullAddress": "894金門縣烈嶼鄉西方1-1號",
        "IsShowCollection": true,
        "IsCollection": false,
        "Distance": 12859417,
        "UpdateTime": "2018-03-15T09:26:26.1075516+08:00",
        "CreateTime": "2018-03-15T09:26:26.1075516+08:00"
      },
      {
        "Id": "91f74e9a-73ce-4b11-ae3a-68b8fe5066e2",
        "Name": "黃厝三層樓",
        "Category": 0,
        "Phone": "082-362415",
        "Zipcode": "894",
        "City": "金門縣",
        "Area": "烈嶼鄉",
        "Address": "黃厝23-1號",
        "Business": "09:00~18:00",
        "Evaluation": 0,
        "State": 0,
        "Latitude": 24.44653,
        "Longitude": 118.252172,
        "Icon": "http://taokehang.nqu.edu.tw/Upload/Store/4c62b9a4-ef73-4dde-8b8c-a104304258a3.jpg",
        "IsTop": false,
        "Sort": 0,
        "BrowseCount": 75,
        "Collection": 6,
        "Remark": "低消50元",
        "SuggestDishes": "芋泥雙胞胎/芋頭招牌冰/芋頭牛奶冰",
        "AvgCost": 70,
        "Information": "美味芋頭 口感一流\r\n「黃厝三層樓」的外觀普通，就像一般民宅一樣，不過他們利用小金門種的芋頭，做出來的芋頭餐可是赫赫有名，好吃到不行。為什麼用「三層樓」當店名？原來是因為當時這裡是國防前線，房屋的高度都受限制，唯有這棟三層樓的建築，成為當地的指標及象徵，別看建築物外表這麼樸素，卻也曾歷經風霜。因為特殊的氣候與沙地，讓小金門的芋頭比台灣產的質優。除了澱粉比較細，口感更綿密細緻外，香氣也比台灣產的更香。金門的許多餐廳都會有芋頭這道菜，但黃厝三層樓的老闆洪木盛卻將其發揮得淋漓盡致！\r\n無論是招牌菜「芋戀肉」、充滿芋泥香氣的「芋泥丸」，或是獨具特色的「芋頭刨冰」…..老闆掛保證說：「小金門的芋頭比台灣任何地方的都好吃，因為香氣夠，口感又綿密，在別的地方絕對找不到一樣的口味啦！\r\n",
        "FullAddress": "894金門縣烈嶼鄉黃厝23-1號",
        "IsShowCollection": true,
        "IsCollection": false,
        "Distance": 12860480,
        "UpdateTime": "2018-03-15T09:26:26.1075516+08:00",
        "CreateTime": "2018-03-15T09:26:26.1075516+08:00"
      },
      {
        "Id": "be0c74f3-fa43-42de-97a8-5b9a2a14625a",
        "Name": "佳興石蚵料理小吃",
        "Category": 2,
        "Phone": "082-363897",
        "Zipcode": "894",
        "City": "金門縣",
        "Area": "烈嶼鄉",
        "Address": "上林村79號",
        "Business": "09:00~21:00",
        "Evaluation": 0,
        "State": 0,
        "Latitude": 24.428337,
        "Longitude": 118.22872,
        "Icon": "http://taokehang.nqu.edu.tw/Upload/Store/83225e42-015e-4f8d-920f-1cfeb06b72aa.jpg",
        "IsTop": false,
        "Sort": 0,
        "BrowseCount": 106,
        "Collection": 2,
        "Remark": "",
        "SuggestDishes": "蚵仔煎/蚵仔麵線/蚵仔酥",
        "AvgCost": 50,
        "Information": "位於小金門的一間家庭式餐廳，就位於將軍廟的斜對面，看到這顆斗大的手榴彈~~~就知道好吃的蚵仔煎到啦!!!!!!",
        "FullAddress": "894金門縣烈嶼鄉上林村79號",
        "IsShowCollection": true,
        "IsCollection": false,
        "Distance": 12858599,
        "UpdateTime": "2018-03-15T09:26:26.1075516+08:00",
        "CreateTime": "2018-03-15T09:26:26.1075516+08:00"
      },
      {
        "Id": "9ad00950-01a8-4daa-aca8-2e90086d55aa",
        "Name": "妙香小吃店",
        "Category": 2,
        "Phone": "082-362306",
        "Zipcode": "894",
        "City": "金門縣",
        "Area": "烈嶼鄉",
        "Address": "后頭43之1號",
        "Business": "10:00~18:00",
        "Evaluation": 0,
        "State": 0,
        "Latitude": 24.440221,
        "Longitude": 118.260101,
        "Icon": "http://taokehang.nqu.edu.tw/Upload/Store/c92dd733-1dd8-4972-8188-b4037358a433.jpg",
        "IsTop": false,
        "Sort": 0,
        "BrowseCount": 42,
        "Collection": 6,
        "Remark": "",
        "SuggestDishes": "鍋貼、滷菜、蚵仔煎、酸辣湯、炒三鮮、炒泡麵",
        "AvgCost": 60,
        "Information": "位於后頭的妙香一直是小金門著名的小吃，五十幾年來供應著阿兵哥與住戶們的飲食，是許許多多人喜愛懷念的古早味，雖然藏身於鄉村巷弄間依然能讓老饕們不遠千里慕名而來。",
        "FullAddress": "894金門縣烈嶼鄉后頭43之1號",
        "IsShowCollection": true,
        "IsCollection": false,
        "Distance": 12861417,
        "UpdateTime": "2018-03-15T09:26:26.1075516+08:00",
        "CreateTime": "2018-03-15T09:26:26.1075516+08:00"
      },
      {
        "Id": "bac7a43a-77cf-4ea9-aa84-d5f425196218",
        "Name": "鮮豐食堂",
        "Category": 2,
        "Phone": "082-351633",
        "Zipcode": "890",
        "City": "金門縣",
        "Area": "金沙鎮",
        "Address": "國中路7號",
        "Business": "11:00:00~13:30         17:00~19:00",
        "Evaluation": 0,
        "State": 0,
        "Latitude": 24.488902,
        "Longitude": 118.414113,
        "Icon": "http://taokehang.nqu.edu.tw/Upload/Store/ccac37af-7816-4e89-bd27-d2273a9baf23.jpg",
        "IsTop": false,
        "Sort": 0,
        "BrowseCount": 31,
        "Collection": 1,
        "Remark": "合菜與東坡肉需事先預訂/周四公休",
        "SuggestDishes": "合菜/東坡肉/季節菜色/鍋貼",
        "AvgCost": 80,
        "Information": "不只單單賣熟食，還供應冰果店、冷(熱)飲，能滿足廣大的客人需求",
        "FullAddress": "890金門縣金沙鎮國中路7號",
        "IsShowCollection": true,
        "IsCollection": false,
        "Distance": 12875466,
        "UpdateTime": "2018-03-15T09:26:26.1075516+08:00",
        "CreateTime": "2018-03-15T09:26:26.1075516+08:00"
      },
      {
        "Id": "ad0e1951-f1d3-4d98-b418-50e423b97687",
        "Name": "紅磚屋食坊",
        "Category": 2,
        "Phone": "082-352249",
        "Zipcode": "890",
        "City": "金門縣",
        "Area": "金沙鎮",
        "Address": "新興街48號",
        "Business": "10:30~19:30",
        "Evaluation": 0,
        "State": 0,
        "Latitude": 24.477955,
        "Longitude": 118.428041,
        "Icon": "http://taokehang.nqu.edu.tw/Upload/Store/7a1d1aa3-87e3-4a91-9a25-58af2cc555d8.jpg",
        "IsTop": false,
        "Sort": 0,
        "BrowseCount": 51,
        "Collection": 5,
        "Remark": "",
        "SuggestDishes": "紅磚屋特製控肉飯/鴨肉麵",
        "AvgCost": 65,
        "Information": "便當小吃經營，物美價廉，可口衛生，歡迎品嚐 ~~\r\n商品項目:控肉飯、各式滷味、麵點、隨意小吃、飲料、各式湯品。\r\n",
        "FullAddress": "890金門縣金沙鎮新興街48號",
        "IsShowCollection": true,
        "IsCollection": false,
        "Distance": 12877110,
        "UpdateTime": "2018-03-15T09:26:26.1075516+08:00",
        "CreateTime": "2018-03-15T09:26:26.1075516+08:00"
      },
      {
        "Id": "8d94e282-53d4-4c76-a54d-3290e088196f",
        "Name": "胖老爹美式炸雞",
        "Category": 2,
        "Phone": "082336111",
        "Zipcode": "890",
        "City": "金門縣",
        "Area": "金沙鎮",
        "Address": "復興路25號",
        "Business": "11:00~20:00",
        "Evaluation": 0,
        "State": 0,
        "Latitude": 24.440932,
        "Longitude": 118.416611,
        "Icon": "http://taokehang.nqu.edu.tw/Upload/Store/f336de8b-f647-4eb0-96ee-140faa65e9bf.jpg",
        "IsTop": false,
        "Sort": 0,
        "BrowseCount": 68,
        "Collection": 6,
        "Remark": "需要耐心等待",
        "SuggestDishes": "炸雞，雞腿、雞排、雞塊、雞翅",
        "AvgCost": 50,
        "Information": "主打現點現炸、鮮嫩多汁、條味不錯，價格也很親民",
        "FullAddress": "890金門縣金沙鎮復興路25號",
        "IsShowCollection": true,
        "IsCollection": false,
        "Distance": 12876881,
        "UpdateTime": "2018-03-15T09:26:26.1075516+08:00",
        "CreateTime": "2018-03-15T09:26:26.1075516+08:00"
      },
      {
        "Id": "1c8291d1-c528-4066-9ea0-a0c3151a643f",
        "Name": "薩諾瓦義式廚房",
        "Category": 2,
        "Phone": "082-332530",
        "Zipcode": "891",
        "City": "金門縣",
        "Area": "金湖鎮",
        "Address": "太湖路二段3巷",
        "Business": "11:00~14:30        17:00~21:30",
        "Evaluation": 5,
        "State": 0,
        "Latitude": 24.438415,
        "Longitude": 118.417903,
        "Icon": "http://taokehang.nqu.edu.tw/Upload/Store/ec4523e3-6faf-4866-8079-0cfd719d2e81.jpg",
        "IsTop": false,
        "Sort": 0,
        "BrowseCount": 75,
        "Collection": 7,
        "Remark": "",
        "SuggestDishes": "咖哩日式豬排義大利麵,奶油培根蛋汁義大利麵 \r\n",
        "AvgCost": 200,
        "Information": "專賣各式義大利麵PIZZA 焗烤燉飯歐姆飯點心炸炸物。",
        "FullAddress": "891金門縣金湖鎮太湖路二段3巷",
        "IsShowCollection": true,
        "IsCollection": false,
        "Distance": 12877070,
        "UpdateTime": "2018-03-15T09:26:26.1075516+08:00",
        "CreateTime": "2018-03-15T09:26:26.1075516+08:00"
      },
      {
        "Id": "333c8e37-b618-4495-a3e8-96c741184c22",
        "Name": "司葳瑪",
        "Category": 2,
        "Phone": "82352582",
        "Zipcode": "890",
        "City": "金門縣",
        "Area": "金沙鎮",
        "Address": "國中路1號",
        "Business": "05:30~11:00",
        "Evaluation": 0,
        "State": 0,
        "Latitude": 24.488644,
        "Longitude": 118.413863,
        "Icon": "http://taokehang.nqu.edu.tw/Upload/Store/9e4dbd11-51bf-44fa-b722-ba05d202a244.jpg",
        "IsTop": false,
        "Sort": 0,
        "BrowseCount": 54,
        "Collection": 0,
        "Remark": "",
        "SuggestDishes": "蔥抓豬排 、蔥抓火腿\r\n",
        "AvgCost": 55,
        "Information": "早餐店",
        "FullAddress": "890金門縣金沙鎮國中路1號",
        "IsShowCollection": true,
        "IsCollection": false,
        "Distance": 12875448,
        "UpdateTime": "2018-03-15T09:26:26.1075516+08:00",
        "CreateTime": "2018-03-15T09:26:26.1075516+08:00"
      },
      {
        "Id": "c8f3707f-c3cd-4cf9-8ebf-f96969a683ca",
        "Name": "9198 JoyBar餐酒館",
        "Category": 2,
        "Phone": "0975-689198",
        "Zipcode": "891",
        "City": "金門縣",
        "Area": "金湖鎮",
        "Address": "黃海路20號",
        "Business": "11:00~22:00",
        "Evaluation": 0,
        "State": 0,
        "Latitude": 24.444707,
        "Longitude": 118.416064,
        "Icon": "http://taokehang.nqu.edu.tw/Upload/Store/9327131b-3b9b-450d-b413-f71733bd75f7.PNG",
        "IsTop": false,
        "Sort": 0,
        "BrowseCount": 54,
        "Collection": 5,
        "Remark": "",
        "SuggestDishes": "蘑菇燻雞歐姆蛋,蒜香白酒燻雞燉飯,起司豬排堡\r\n",
        "AvgCost": 250,
        "Information": "位於黃海路上金湖國小後方的一家餐酒館。這家店的菜單很大，巨無霸漢堡真的Hen大，讓你吃不完。",
        "FullAddress": "891金門縣金湖鎮黃海路20號",
        "IsShowCollection": true,
        "IsCollection": true,
        "Distance": 12876735,
        "UpdateTime": "2018-03-15T09:26:26.1075516+08:00",
        "CreateTime": "2018-03-15T09:26:26.1075516+08:00"
      },
      {
        "Id": "8b0b6731-ad93-4bb9-a5f1-4c0f4661efad",
        "Name": "芋泥餅",
        "Category": 0,
        "Phone": "0921-200-007",
        "Zipcode": "890",
        "City": "金門縣",
        "Area": "金沙鎮",
        "Address": "陽翟新興街17號",
        "Business": "13:00~18:00",
        "Evaluation": 0,
        "State": 0,
        "Latitude": 24.47783,
        "Longitude": 118.428065,
        "Icon": "http://taokehang.nqu.edu.tw/Upload/Store/437c26e0-fcb5-4981-a509-b312a68db5f2.jpg",
        "IsTop": false,
        "Sort": 0,
        "BrowseCount": 100,
        "Collection": 1,
        "Remark": "僅接受電話預購\r\n",
        "SuggestDishes": "芋泥餅\r\n",
        "AvgCost": 20,
        "Information": "飽滿外酥內軟不油不膩的芋泥餅",
        "FullAddress": "890金門縣金沙鎮陽翟新興街17號",
        "IsShowCollection": true,
        "IsCollection": false,
        "Distance": 12877115,
        "UpdateTime": "2018-03-15T09:26:26.1075516+08:00",
        "CreateTime": "2018-03-15T09:26:26.1075516+08:00"
      },
      {
        "Id": "86fd3378-2ae2-4b2f-8867-00395893e86e",
        "Name": "阿綠的店",
        "Category": 2,
        "Phone": "082-352582",
        "Zipcode": "890",
        "City": "金門縣",
        "Area": "金沙鎮",
        "Address": "陽翟新興街31號",
        "Business": "06:00~10:30",
        "Evaluation": 0,
        "State": 0,
        "Latitude": 24.477593,
        "Longitude": 118.429077,
        "Icon": "http://taokehang.nqu.edu.tw/Upload/Store/029c4dd3-af65-457d-84d3-f16d6934cfa9.jpg",
        "IsTop": false,
        "Sort": 0,
        "BrowseCount": 80,
        "Collection": 0,
        "Remark": "週六公休\r\n",
        "SuggestDishes": "清蒸肉圓\r\n",
        "AvgCost": 40,
        "Information": "金沙隱藏版美食-陽翟阿綠的店清蒸高粱肉圓這間位於陽翟路邊的小店，是一間早餐店，但裡面卻有著十分特別的早餐－清蒸高粱肉圓。",
        "FullAddress": "890金門縣金沙鎮陽翟新興街31號",
        "IsShowCollection": true,
        "IsCollection": false,
        "Distance": 12877221,
        "UpdateTime": "2018-03-15T09:26:26.1075516+08:00",
        "CreateTime": "2018-03-15T09:26:26.1075516+08:00"
      },
      {
        "Id": "7dee3e5a-1dd6-4516-a1a6-497f76d78444",
        "Name": "印尼美食小店",
        "Category": 2,
        "Phone": "082-352821",
        "Zipcode": "890",
        "City": "金門縣",
        "Area": "金沙鎮",
        "Address": "陽翟129號",
        "Business": "09:00~21:00",
        "Evaluation": 0,
        "State": 0,
        "Latitude": 24.479622,
        "Longitude": 118.427611,
        "Icon": "http://taokehang.nqu.edu.tw/Upload/Store/fd3cf9e2-0d8a-4d05-8e31-b173fdfef337.jpg",
        "IsTop": false,
        "Sort": 0,
        "BrowseCount": 46,
        "Collection": 0,
        "Remark": "",
        "SuggestDishes": "雞肉麵、海鮮炒麵、炸雞飯\r\n",
        "AvgCost": 80,
        "Information": "主要場景陽翟大街後方，有一個不起眼的店面，門口掛著「印尼美食小店」招牌；店裡的乾麵口味獨到、配料澎湃，連麵條都是老闆娘自製，許多人聞香而來。她在這裡賣起家鄉的印尼小吃，有乾麵、炒麵、咖哩飯、米粉、板條、沙嗲、巴東牛肉飯，另外，連大阪燒都有。張阿姨標榜所有食材、配料都不用防腐劑，連麵條都是用自購的製麵機製作。店裡的招牌是印尼乾麵。",
        "FullAddress": "890金門縣金沙鎮陽翟129號",
        "IsShowCollection": true,
        "IsCollection": false,
        "Distance": 12877027,
        "UpdateTime": "2018-03-15T09:26:26.1075516+08:00",
        "CreateTime": "2018-03-15T09:26:26.1075516+08:00"
      },
      {
        "Id": "4326166e-ff36-4e1e-a1a0-d6d43ecf00b9",
        "Name": "經典義大利",
        "Category": 2,
        "Phone": "082-334966",
        "Zipcode": "891",
        "City": "金門縣",
        "Area": "金湖鎮",
        "Address": "復興路17號",
        "Business": "10:00~1400       17:00~21:00",
        "Evaluation": 0,
        "State": 0,
        "Latitude": 24.440868,
        "Longitude": 118.416731,
        "Icon": "http://taokehang.nqu.edu.tw/Upload/Store/8932eff9-e40f-4e42-8ecf-b5371d7c0f27.jpg",
        "IsTop": false,
        "Sort": 0,
        "BrowseCount": 20,
        "Collection": 0,
        "Remark": "",
        "SuggestDishes": "焗烤番茄肉醬通心麵,香蒜辣椒義大利麵,培根蛋乳義大利麵\r\n",
        "AvgCost": 200,
        "Information": "位於山外的經典義大利餐廳，是一家偏家庭式風格的西式餐廳，裡面的氣氛還不錯，音樂都是屬於慢節拍的優雅聲音！",
        "FullAddress": "891金門縣金湖鎮復興路17號",
        "IsShowCollection": true,
        "IsCollection": false,
        "Distance": 12876894,
        "UpdateTime": "2018-03-15T09:26:26.1075516+08:00",
        "CreateTime": "2018-03-15T09:26:26.1075516+08:00"
      },
      {
        "Id": "226eee3e-cfa5-4378-ab57-4be1647f261b",
        "Name": "長榮山西拌麵",
        "Category": 3,
        "Phone": "082-351779",
        "Zipcode": "890",
        "City": "金門縣",
        "Area": "金沙鎮",
        "Address": "三山里山西村22號",
        "Business": "11:00~14:00       17:00~21:00",
        "Evaluation": 0,
        "State": 0,
        "Latitude": 24.502644,
        "Longitude": 118.43019,
        "Icon": "http://taokehang.nqu.edu.tw/Upload/Store/1ce492a7-65de-416c-8358-83b808c9506a.jpg",
        "IsTop": false,
        "Sort": 0,
        "BrowseCount": 125,
        "Collection": 9,
        "Remark": "",
        "SuggestDishes": "山西拌麵、山西拌飯、長榮豆腐    \r\n",
        "AvgCost": 60,
        "Information": "這間先總統 經國先生最愛的山西拌麵，該店跟鴻美炒泡麵一樣，都是民房外觀，很不顯眼，招牌小小的，一開始長榮商店是賣雜貨為主，後來因為金門龐大駐軍人口，所衍生出兼賣餐飲的阿兵哥文化。山西拌麵因為太過出名，所以名稱甚至蓋過原本的「長榮商店」!「長榮山西拌麵」在阿兵哥界非常有名，甚至很多阿兵哥退伍後來金門還會特地來回味這一款美味!",
        "FullAddress": "890金門縣金沙鎮三山里山西村22號",
        "IsShowCollection": true,
        "IsCollection": false,
        "Distance": 12876720,
        "UpdateTime": "2018-03-15T09:26:26.1075516+08:00",
        "CreateTime": "2018-03-15T09:26:26.1075516+08:00"
      },
      {
        "Id": "b04d9c17-66e0-4817-8024-ad2a50789180",
        "Name": "新時代時尚健康鍋",
        "Category": 2,
        "Phone": "082-335226",
        "Zipcode": "891",
        "City": "金門縣",
        "Area": "金湖鎮",
        "Address": "自強路3號",
        "Business": "11:00~22:00",
        "Evaluation": 0,
        "State": 0,
        "Latitude": 24.440932,
        "Longitude": 118.415658,
        "Icon": "http://taokehang.nqu.edu.tw/Upload/Store/deef7f06-797a-4ccf-af37-2e39f623e38d.jpg",
        "IsTop": false,
        "Sort": 0,
        "BrowseCount": 19,
        "Collection": 0,
        "Remark": "",
        "SuggestDishes": "原味豬肉鍋,香煎豬排,中藥鴨寶鍋\r\n",
        "AvgCost": 160,
        "Information": "連鎖火鍋店。",
        "FullAddress": "891金門縣金湖鎮自強路3號",
        "IsShowCollection": true,
        "IsCollection": false,
        "Distance": 12876786,
        "UpdateTime": "2018-03-15T09:26:26.1075516+08:00",
        "CreateTime": "2018-03-15T09:26:26.1075516+08:00"
      },
      {
        "Id": "04ff02f8-0f03-4b59-94dc-8167ae09d010",
        "Name": "四合味便當",
        "Category": 2,
        "Phone": "082-352611   0938-978-111",
        "Zipcode": "890",
        "City": "金門縣",
        "Area": "金沙鎮",
        "Address": "五福街38號",
        "Business": "10:30~13:30        17:00~19:00",
        "Evaluation": 0,
        "State": 0,
        "Latitude": 24.48788,
        "Longitude": 118.413719,
        "Icon": "http://taokehang.nqu.edu.tw/Upload/Store/99d7d3e1-36db-49e3-94a4-ec181eb016d5.jpg",
        "IsTop": false,
        "Sort": 0,
        "BrowseCount": 21,
        "Collection": 1,
        "Remark": "",
        "SuggestDishes": "三寶飯、三杯雞飯、鱈魚飯",
        "AvgCost": 80,
        "Information": "現場購買便當時可以自選3種便當菜，還會搭配1個薯餅。\r\n",
        "FullAddress": "890金門縣金沙鎮五福街38號",
        "IsShowCollection": true,
        "IsCollection": false,
        "Distance": 12875452,
        "UpdateTime": "2018-03-15T09:26:26.1075516+08:00",
        "CreateTime": "2018-03-15T09:26:26.1075516+08:00"
      },
      {
        "Id": "eb092039-feb4-4ad4-8256-3281ca6a1a2c",
        "Name": "瑞源金門燒餅",
        "Category": 3,
        "Phone": "989185816",
        "Zipcode": "890",
        "City": "金門縣",
        "Area": "金沙鎮",
        "Address": "三民路16巷1號",
        "Business": "06:00~18:00",
        "Evaluation": 0,
        "State": 0,
        "Latitude": 24.489628,
        "Longitude": 118.413035,
        "Icon": "http://taokehang.nqu.edu.tw/Upload/Store/149c2a43-4c0c-4050-a84f-771171795938.jpg",
        "IsTop": false,
        "Sort": 0,
        "BrowseCount": 49,
        "Collection": 2,
        "Remark": "",
        "SuggestDishes": "蚵仔麵線/廣東粥/燒餅",
        "AvgCost": 50,
        "Information": "瑞源燒餅無餿油，良心經營為鄉親，內餡精選肉質鮮，古味傳承陳福林先生。",
        "FullAddress": "890金門縣金沙鎮三民路16巷1號",
        "IsShowCollection": true,
        "IsCollection": false,
        "Distance": 12875342,
        "UpdateTime": "2018-03-15T09:26:26.1075516+08:00",
        "CreateTime": "2018-03-15T09:26:26.1075516+08:00"
      },
      {
        "Id": "28cdddb9-e963-4adf-9d35-0113b0fb7192",
        "Name": "滿天星餐飲",
        "Category": 2,
        "Phone": "082-333316",
        "Zipcode": "891",
        "City": "金門縣",
        "Area": "金湖鎮",
        "Address": "復興路47號",
        "Business": "10:00~21:00",
        "Evaluation": 0,
        "State": 0,
        "Latitude": 24.441208,
        "Longitude": 118.416153,
        "Icon": "http://taokehang.nqu.edu.tw/Upload/Store/b36aafbf-67ac-4989-8e69-375cbef7c82b.PNG",
        "IsTop": false,
        "Sort": 0,
        "BrowseCount": 16,
        "Collection": 1,
        "Remark": "",
        "SuggestDishes": "紅燒牛肉鐵板麵,蝦仁鐵板麵,什錦鐵板麵\r\n",
        "AvgCost": 160,
        "Information": "這家位於山外的滿天星是小時候的最愛吃的牛排館之一正門看起來真的是歷史悠久的店菜單椅子不是復古喔是真的很古老。",
        "FullAddress": "891金門縣金湖鎮復興路47號",
        "IsShowCollection": true,
        "IsCollection": false,
        "Distance": 12876829,
        "UpdateTime": "2018-03-15T09:26:26.1075516+08:00",
        "CreateTime": "2018-03-15T09:26:26.1075516+08:00"
      },
      {
        "Id": "637f9793-1d69-4b89-80d8-1b5f5a78c179",
        "Name": "遠來興小吃店",
        "Category": 2,
        "Phone": "082-352622",
        "Zipcode": "890",
        "City": "金門縣",
        "Area": "金沙鎮",
        "Address": "三民路22巷11-1號",
        "Business": "0630-1300",
        "Evaluation": 0,
        "State": 0,
        "Latitude": 24.490283,
        "Longitude": 118.413104,
        "Icon": "http://taokehang.nqu.edu.tw/Upload/Store/8f27339f-47f8-4a95-8185-bf90371ab3ea.jpg",
        "IsTop": false,
        "Sort": 0,
        "BrowseCount": 16,
        "Collection": 0,
        "Remark": "1.賣完為止",
        "SuggestDishes": "廣東粥/餛飩加料",
        "AvgCost": 50,
        "Information": "位於沙美老街的遠來興小吃，創立於1932年，可是在地人早餐、午餐的首選",
        "FullAddress": "890金門縣金沙鎮三民路22巷11-1號",
        "IsShowCollection": true,
        "IsCollection": false,
        "Distance": 12875333,
        "UpdateTime": "2018-03-15T09:26:26.1075516+08:00",
        "CreateTime": "2018-03-15T09:26:26.1075516+08:00"
      },
      {
        "Id": "e3f7a298-8089-41d3-b669-13c2e30ab49c",
        "Name": "鴻的私家廚房",
        "Category": 2,
        "Phone": "082-336879",
        "Zipcode": "891",
        "City": "金門縣",
        "Area": "金湖鎮",
        "Address": "山外村街19號",
        "Business": "10:00~20:00",
        "Evaluation": 0,
        "State": 0,
        "Latitude": 24.445279,
        "Longitude": 118.415239,
        "Icon": "http://taokehang.nqu.edu.tw/Upload/Store/2c178e28-3dcd-4e6d-ab4f-1a6319e81fce.PNG",
        "IsTop": false,
        "Sort": 0,
        "BrowseCount": 43,
        "Collection": 1,
        "Remark": "",
        "SuggestDishes": "厚切豬排飯,藍帶豬排飯 ,培根義大利麵\r\n",
        "AvgCost": 250,
        "Information": "鴻的私家廚房，咖啡、簡餐、輕食。",
        "FullAddress": "891金門縣金湖鎮山外村街19號",
        "IsShowCollection": true,
        "IsCollection": false,
        "Distance": 12876639,
        "UpdateTime": "2018-03-15T09:26:26.1075516+08:00",
        "CreateTime": "2018-03-15T09:26:26.1075516+08:00"
      },
      {
        "Id": "e8b39811-4956-4008-aab0-59057e9c5b97",
        "Name": "老先覺麻辣窯燒火鍋",
        "Category": 2,
        "Phone": "082-336858",
        "Zipcode": "891",
        "City": "金門縣",
        "Area": "金湖鎮",
        "Address": "黃海路89號",
        "Business": "11:00~15:00     17:00~22:00",
        "Evaluation": 4.5,
        "State": 0,
        "Latitude": 24.444461,
        "Longitude": 118.415904,
        "Icon": "http://taokehang.nqu.edu.tw/Upload/Store/1232191e-e880-407a-9e8c-2ec0270a155f.jpg",
        "IsTop": false,
        "Sort": 0,
        "BrowseCount": 35,
        "Collection": 1,
        "Remark": "",
        "SuggestDishes": "和風昆布鼎極鍋,日式胡麻窯燒鍋,麻辣鮮茄鴛鴦鍋",
        "AvgCost": 150,
        "Information": "連鎖火鍋店\r\n高師傅最大的成就感來自每位客人嚐到老先覺時的開心笑容。獨特用心的湯頭，嚴選的食材，舒適的用餐環境是老先覺給客人的承諾，也希望您能一同感受老先覺傳達源源不絕的用心、安心、貼心！\r\n",
        "FullAddress": "891金門縣金湖鎮黃海路89號",
        "IsShowCollection": true,
        "IsCollection": false,
        "Distance": 12876725,
        "UpdateTime": "2018-03-15T09:26:26.1075516+08:00",
        "CreateTime": "2018-03-15T09:26:26.1075516+08:00"
      },
      {
        "Id": "f3758b67-ea8a-490f-affc-eb2389670bc5",
        "Name": "食為天鍋物",
        "Category": 3,
        "Phone": "082-330800",
        "Zipcode": "891",
        "City": "金門縣",
        "Area": "金湖鎮",
        "Address": "太湖路二段217號",
        "Business": "11:30~14:00   17:30~21:30",
        "Evaluation": 0,
        "State": 0,
        "Latitude": 24.438839,
        "Longitude": 118.418779,
        "Icon": "http://taokehang.nqu.edu.tw/Upload/Store/2f1fffdc-f5ac-49b4-9f33-0963e2494255.jpg",
        "IsTop": false,
        "Sort": 0,
        "BrowseCount": 98,
        "Collection": 4,
        "Remark": "",
        "SuggestDishes": "梅花豬肉鍋、培根牛肉鍋 、精選羊肉鍋\r\n",
        "AvgCost": 300,
        "Information": "走入門中，挺有詩意的中國風擺飾，右側處還有類似小包廂的概念設計。湯頭的味道比較多元，也較為養生，可以加價選擇。",
        "FullAddress": "891金門縣金湖鎮太湖路二段217號",
        "IsShowCollection": true,
        "IsCollection": false,
        "Distance": 12877146,
        "UpdateTime": "2018-03-15T09:26:26.1075516+08:00",
        "CreateTime": "2018-03-15T09:26:26.1075516+08:00"
      },
      {
        "Id": "f35e8e79-a7f9-4c99-850d-7afe15cc038b",
        "Name": "雙醬咖哩",
        "Category": 2,
        "Phone": "082-335601",
        "Zipcode": "891",
        "City": "金門縣",
        "Area": "金湖鎮",
        "Address": "黃海路25號",
        "Business": "11:00~21:00",
        "Evaluation": 0,
        "State": 0,
        "Latitude": 24.44322,
        "Longitude": 118.414985,
        "Icon": "http://taokehang.nqu.edu.tw/Upload/Store/c2d4e2a9-1430-47f0-93f8-7450fe6753ad.PNG",
        "IsTop": false,
        "Sort": 0,
        "BrowseCount": 30,
        "Collection": 2,
        "Remark": "",
        "SuggestDishes": "豬排飯,雞排飯,丼飯\r\n",
        "AvgCost": 150,
        "Information": "車子可停在對面金湖國小，停車很方便。",
        "FullAddress": "891金門縣金湖鎮黃海路25號",
        "IsShowCollection": true,
        "IsCollection": false,
        "Distance": 12876664,
        "UpdateTime": "2018-03-15T09:26:26.1075516+08:00",
        "CreateTime": "2018-03-15T09:26:26.1075516+08:00"
      },
      {
        "Id": "a0518ddb-c11e-4c56-95b9-eea5609a7a86",
        "Name": "閩式燒餅",
        "Category": 3,
        "Phone": "082-352922",
        "Zipcode": "890",
        "City": "金門縣",
        "Area": "金沙鎮",
        "Address": "沙美博愛街48號",
        "Business": "07:00~16:00",
        "Evaluation": 0,
        "State": 0,
        "Latitude": 24.490048,
        "Longitude": 118.413137,
        "Icon": "http://taokehang.nqu.edu.tw/Upload/Store/9600e8e8-5d53-4cdd-aa2b-02ff01c9677c.jpg",
        "IsTop": false,
        "Sort": 0,
        "BrowseCount": 48,
        "Collection": 7,
        "Remark": "電話預訂需準時取貨",
        "SuggestDishes": "甜/鹹燒餅",
        "AvgCost": 15,
        "Information": "金門的燒餅做法跟台灣不同，不是夾著油條、蛋，而是包有餡料的。每家燒餅店做法略有不同，各具特色。沙美這家閩式燒餅店不含前面傳承，已有三十多年的歷史。",
        "FullAddress": "890金門縣金沙鎮沙美博愛街48號",
        "IsShowCollection": true,
        "IsCollection": false,
        "Distance": 12875342,
        "UpdateTime": "2018-03-15T09:26:26.1075516+08:00",
        "CreateTime": "2018-03-15T09:26:26.1075516+08:00"
      },
      {
        "Id": "a3111e8e-bb3d-4176-a227-f4b21724ea37",
        "Name": "談天樓",
        "Category": 3,
        "Phone": "082-332766",
        "Zipcode": "891",
        "City": "金門縣",
        "Area": "金湖鎮",
        "Address": "復興路3號",
        "Business": "10:30~19:00   周三公休",
        "Evaluation": 0,
        "State": 0,
        "Latitude": 24.440694,
        "Longitude": 118.417005,
        "Icon": "http://taokehang.nqu.edu.tw/Upload/Store/bfb068c6-b712-4f88-ae12-4f49f7014051.jpg",
        "IsTop": false,
        "Sort": 0,
        "BrowseCount": 59,
        "Collection": 9,
        "Remark": "",
        "SuggestDishes": "炸醬乾麵、甜酒攤圓、百香果冰湯圓\r\n",
        "AvgCost": 60,
        "Information": "金門的談天樓是一間人氣紅翻天的老店 很多新聞媒體都有採訪過 食尚玩家也有來走訪喔，店名真的是超級復古的拉!! 感覺很文青的fu，這裡的招牌是酒釀芝麻湯圓",
        "FullAddress": "891金門縣金湖鎮復興路3號",
        "IsShowCollection": true,
        "IsCollection": false,
        "Distance": 12876925,
        "UpdateTime": "2018-03-15T09:26:26.1075516+08:00",
        "CreateTime": "2018-03-15T09:26:26.1075516+08:00"
      },
      {
        "Id": "92fbe551-bd62-4667-ae28-f9ea06c6175a",
        "Name": "三言兩語",
        "Category": 2,
        "Phone": "082-333222",
        "Zipcode": "891",
        "City": "金門縣",
        "Area": "金湖鎮",
        "Address": "復興路116號",
        "Business": "09:00~21:30",
        "Evaluation": 5,
        "State": 0,
        "Latitude": 24.442061,
        "Longitude": 118.414779,
        "Icon": "http://taokehang.nqu.edu.tw/Upload/Store/d9fa92ee-6c5a-4c4f-a9f4-7bf4ffbeb257.jpg",
        "IsTop": false,
        "Sort": 0,
        "BrowseCount": 52,
        "Collection": 6,
        "Remark": "",
        "SuggestDishes": "八二三砲彈潛艇堡\r\n",
        "AvgCost": 100,
        "Information": "位於金門東半島金湖鎮的「三言兩語」美食館，從第一代雜貨、小吃兼作裁縫、補繡軍人名條，到現在主打飲料、速食的美食館，第二代女主人陳翠娥一點不含糊。「三言兩語」有一整牆五顏六色的軍種臂章，還有金防部才有的師、旅標誌，加上店內招牌「八二三砲彈潛艇堡」、戰地炒泡麵更是一絕，再來一杯「小三」飲料，已讓許多當年抽到「金馬獎」的老兵，一再重遊話當年。",
        "FullAddress": "891金門縣金湖鎮復興路116號",
        "IsShowCollection": true,
        "IsCollection": false,
        "Distance": 12876672,
        "UpdateTime": "2018-03-15T09:26:26.1075516+08:00",
        "CreateTime": "2018-03-15T09:26:26.1075516+08:00"
      },
      {
        "Id": "6095cde1-0398-4293-9c59-2f01df120a66",
        "Name": "世界炸機",
        "Category": 2,
        "Phone": "0911 883 022",
        "Zipcode": "890",
        "City": "金門縣",
        "Area": "金沙鎮",
        "Address": "沙美復興街19號",
        "Business": "15:00~19:30",
        "Evaluation": 0,
        "State": 0,
        "Latitude": 24.489144,
        "Longitude": 118.413844,
        "Icon": "http://taokehang.nqu.edu.tw/Upload/Store/91fbc88c-6f7f-4369-b1cb-a2c71a60a339.jpg",
        "IsTop": false,
        "Sort": 0,
        "BrowseCount": 23,
        "Collection": 2,
        "Remark": "",
        "SuggestDishes": "特製炸雞/碳烤雞排",
        "AvgCost": 50,
        "Information": "來沙美老街吃隱藏版下午茶吧，炸到酥香的鹹酥雞、甜滋滋的甘梅地瓜，昔日來金沙戲院看電影，阿兵哥最愛買的點心，40幾年歷史的世界炸雞。",
        "FullAddress": "890金門縣金沙鎮沙美復興街19號",
        "IsShowCollection": true,
        "IsCollection": false,
        "Distance": 12875434,
        "UpdateTime": "2018-03-15T09:26:26.1075516+08:00",
        "CreateTime": "2018-03-15T09:26:26.1075516+08:00"
      },
      {
        "Id": "ccdfa24c-b594-461f-bcb3-c1d4bf1c0c4c",
        "Name": "喜相逢小吃店",
        "Category": 2,
        "Phone": "082-333064",
        "Zipcode": "891",
        "City": "金門縣",
        "Area": "金湖鎮",
        "Address": "復興路5號",
        "Business": "09:00~20:00",
        "Evaluation": 0,
        "State": 0,
        "Latitude": 24.440719,
        "Longitude": 118.416966,
        "Icon": "http://taokehang.nqu.edu.tw/Upload/Store/aa3b5551-d673-484f-90e9-dcea94a32460.jpg",
        "IsTop": false,
        "Sort": 0,
        "BrowseCount": 31,
        "Collection": 6,
        "Remark": "",
        "SuggestDishes": "刀削豬肉拌麵 、燒餅、牛肉湯\r\n",
        "AvgCost": 60,
        "Information": "喜相逢在金門也是生意很好的店， 喜相逢的招牌 刀削牛肉麵。喜相逢除了刀削麵不錯外，還有燒餅也不錯吃。喜相逢就感覺好像在眷村小店一樣的感覺。",
        "FullAddress": "891金門縣金湖鎮復興路5號",
        "IsShowCollection": true,
        "IsCollection": false,
        "Distance": 12876921,
        "UpdateTime": "2018-03-15T09:26:26.1075516+08:00",
        "CreateTime": "2018-03-15T09:26:26.1075516+08:00"
      },
      {
        "Id": "3f23e7d3-f74b-4ebb-bb7c-a6a49b9519dc",
        "Name": "阿卡拉炸雞",
        "Category": 2,
        "Phone": "082-330775",
        "Zipcode": "891",
        "City": "金門縣",
        "Area": "金湖鎮",
        "Address": "中正路27號",
        "Business": "11:00~21:00",
        "Evaluation": 5,
        "State": 0,
        "Latitude": 24.44074,
        "Longitude": 118.415853,
        "Icon": "http://taokehang.nqu.edu.tw/Upload/Store/5fec4b23-8854-42ff-8805-578cc87284e9.PNG",
        "IsTop": false,
        "Sort": 0,
        "BrowseCount": 22,
        "Collection": 0,
        "Remark": "",
        "SuggestDishes": "脆皮雞排,雞米花 ,地瓜條\r\n",
        "AvgCost": 60,
        "Information": "連鎖炸雞店。",
        "FullAddress": "891金門縣金湖鎮中正路27號",
        "IsShowCollection": true,
        "IsCollection": false,
        "Distance": 12876810,
        "UpdateTime": "2018-03-15T09:26:26.1075516+08:00",
        "CreateTime": "2018-03-15T09:26:26.1075516+08:00"
      },
      {
        "Id": "1ad5fe15-ff05-438f-872b-05a52661e19b",
        "Name": "憶兒時",
        "Category": 2,
        "Phone": "082-353146",
        "Zipcode": "890",
        "City": "金門縣",
        "Area": "金沙鎮",
        "Address": "復興街18號",
        "Business": "15:00~18:30",
        "Evaluation": 0,
        "State": 0,
        "Latitude": 24.489183,
        "Longitude": 118.413897,
        "Icon": "http://taokehang.nqu.edu.tw/Upload/Store/b40d2ee4-cec5-415b-a777-7849c4ed1d76.jpg",
        "IsTop": false,
        "Sort": 0,
        "BrowseCount": 22,
        "Collection": 0,
        "Remark": "",
        "SuggestDishes": "海蚵餅 / 香雞排",
        "AvgCost": 40,
        "Information": "在地人從小吃到大的美食，帶有濃濃的古早味，彷彿穿越時空回到童年的情境。",
        "FullAddress": "890金門縣金沙鎮復興街18號",
        "IsShowCollection": true,
        "IsCollection": false,
        "Distance": 12875438,
        "UpdateTime": "2018-03-15T09:26:26.1075516+08:00",
        "CreateTime": "2018-03-15T09:26:26.1075516+08:00"
      },
      {
        "Id": "6d0e0cf1-b2a7-48c3-a547-25d100ac680c",
        "Name": "不知名碳烤",
        "Category": 2,
        "Phone": "082-333431",
        "Zipcode": "891",
        "City": "金門縣",
        "Area": "金湖鎮",
        "Address": "復興路136號",
        "Business": "16:00~00:00",
        "Evaluation": 0,
        "State": 0,
        "Latitude": 24.44233,
        "Longitude": 118.414331,
        "Icon": "http://taokehang.nqu.edu.tw/Upload/Store/1b301467-5fe2-4d0e-be81-cd23fa202169.jpg",
        "IsTop": false,
        "Sort": 0,
        "BrowseCount": 26,
        "Collection": 1,
        "Remark": "",
        "SuggestDishes": "秋刀魚,雞腿肉串,花枝丸\r\n",
        "AvgCost": 30,
        "Information": "開在晚餐、宵夜時段，開到晚上12點。",
        "FullAddress": "891金門縣金湖鎮復興路136號",
        "IsShowCollection": true,
        "IsCollection": false,
        "Distance": 12876621,
        "UpdateTime": "2018-03-15T09:26:26.1075516+08:00",
        "CreateTime": "2018-03-15T09:26:26.1075516+08:00"
      },
      {
        "Id": "8149d40a-9d60-4dd3-875f-cc59c7528258",
        "Name": "張記牛肉麵",
        "Category": 2,
        "Phone": "082-337366",
        "Zipcode": "891",
        "City": "金門縣",
        "Area": "金湖鎮",
        "Address": "黃海路6號",
        "Business": "10:00~21:00",
        "Evaluation": 0,
        "State": 0,
        "Latitude": 24.442785,
        "Longitude": 118.414669,
        "Icon": "http://taokehang.nqu.edu.tw/Upload/Store/b61ff3f9-3d85-48e4-bf3c-18631e734e81.jpg",
        "IsTop": false,
        "Sort": 0,
        "BrowseCount": 19,
        "Collection": 2,
        "Remark": "周二公休\r\n",
        "SuggestDishes": "牛肚麵、招牌年肉麵 、牛肉湯餃\r\n",
        "AvgCost": 100,
        "Information": "山外張記牛肉麵，其實不若山外其他家麵館名氣響亮。推薦招牌牛肉麵、頂級牛肉麵及牛肉湯餃。",
        "FullAddress": "891金門縣金湖鎮黃海路6號",
        "IsShowCollection": true,
        "IsCollection": false,
        "Distance": 12876644,
        "UpdateTime": "2018-03-15T09:26:26.1075516+08:00",
        "CreateTime": "2018-03-15T09:26:26.1075516+08:00"
      },
      {
        "Id": "d274757e-d608-4ef6-803f-967b125a5796",
        "Name": "悟饕池上飯包",
        "Category": 2,
        "Phone": "082-330823",
        "Zipcode": "891",
        "City": "金門縣",
        "Area": "金湖鎮",
        "Address": "中正路9號",
        "Business": "10:00~13:00     16:00~18:00",
        "Evaluation": 0,
        "State": 0,
        "Latitude": 24.440354,
        "Longitude": 118.416485,
        "Icon": "http://taokehang.nqu.edu.tw/Upload/Store/51b0b421-d015-45bd-a0f8-1fe8973fe886.jpg",
        "IsTop": false,
        "Sort": 0,
        "BrowseCount": 4,
        "Collection": 2,
        "Remark": "",
        "SuggestDishes": "正宗池上飯包,悟饕排骨飯包,黃金排骨飯包",
        "AvgCost": 85,
        "Information": "「悟」這個圖像代表著「悟饕人」對米食文化的思考與用心，標誌「悟」的左方是由\r\n轉化而成的“筷子”，對應著現代悟饕人對於東方米食文化的付出；右上方毛筆字型構\r\n成的“五”呈現文化出處與涵養，右下方代表智慧的“眼睛”對應著”口”，所形成的“吾”也\r\n就是對於人本的思考與關懷和尊重。",
        "FullAddress": "891金門縣金湖鎮中正路9號",
        "IsShowCollection": true,
        "IsCollection": false,
        "Distance": 12876882,
        "UpdateTime": "2018-03-15T09:26:26.1075516+08:00",
        "CreateTime": "2018-03-15T09:26:26.1075516+08:00"
      },
      {
        "Id": "24a37daf-c332-4efe-a3ba-de34db354ad8",
        "Name": "榕榕園麵館 ",
        "Category": 2,
        "Phone": "082-331993",
        "Zipcode": "891",
        "City": "金門縣",
        "Area": "金湖鎮",
        "Address": "金湖鎮黃海路7號",
        "Business": "11:00~20:00",
        "Evaluation": 0,
        "State": 0,
        "Latitude": 24.442838,
        "Longitude": 118.414708,
        "Icon": "http://taokehang.nqu.edu.tw/Upload/Store/a8bbb389-426d-4fec-a525-5a08c607ac09.jpg",
        "IsTop": false,
        "Sort": 0,
        "BrowseCount": 25,
        "Collection": 4,
        "Remark": "周四公休\r\n",
        "SuggestDishes": "醬拌麵疙瘩 、醬拌拉麵、醬拌金門麵線\r\n",
        "AvgCost": 60,
        "Information": "金城美食-榕榕園拉麵館(金城店) 山外老牌的榕榕園拉麵館，在金城也可以吃得到。兩家店最大的特點，版主如是想-就是位置絕佳吧！都在車站的步行距離內。",
        "FullAddress": "891金門縣金湖鎮金湖鎮黃海路7號",
        "IsShowCollection": true,
        "IsCollection": false,
        "Distance": 12876646,
        "UpdateTime": "2018-03-15T09:26:26.1075516+08:00",
        "CreateTime": "2018-03-15T09:26:26.1075516+08:00"
      },
      {
        "Id": "6ce83a7d-b652-4bde-b1e3-8a99d8388081",
        "Name": "俊輝燒物",
        "Category": 2,
        "Phone": "082-334707",
        "Zipcode": "891",
        "City": "金門縣",
        "Area": "金湖鎮",
        "Address": "新湖里新頭99號",
        "Business": "17:00~01:00",
        "Evaluation": 5,
        "State": 0,
        "Latitude": 24.433807,
        "Longitude": 118.419027,
        "Icon": "http://taokehang.nqu.edu.tw/Upload/Store/ae748f0b-eb1d-4d6d-b058-4cc582809d3a.jpg",
        "IsTop": false,
        "Sort": 0,
        "BrowseCount": 236,
        "Collection": 6,
        "Remark": "周日公休\r\n",
        "SuggestDishes": "金門海鮮粥 、金門香腸、魷魚串\r\n",
        "AvgCost": 90,
        "Information": "晚上8、9點過後，金門餐飲店大多已打烊，要找家消夜吃可不容易。開張17年的俊輝燒物，一開始主打燒烤消夜場，現今營業場地是自家前院車庫，工作人員也是家人，老闆俊輝要求食物品質，菜單多數選用在地食材，如3年前開賣至今的洛神花茶，堅持使用金門洛神花親自熬煮。\r\n另有粥品、麵湯等選擇，深夜亦不乏家庭扶老攜幼前來解饞。\r\n",
        "FullAddress": "891金門縣金湖鎮新湖里新頭99號",
        "IsShowCollection": true,
        "IsCollection": false,
        "Distance": 12877293,
        "UpdateTime": "2018-03-15T09:26:26.1075516+08:00",
        "CreateTime": "2018-03-15T09:26:26.1075516+08:00"
      },
      {
        "Id": "eb133764-a471-4320-afcf-2ab93b2396d1",
        "Name": "中興肉包饅頭店",
        "Category": 2,
        "Phone": "082-351012",
        "Zipcode": "890",
        "City": "金門縣",
        "Area": "金沙鎮",
        "Address": "沙美路61-1號",
        "Business": "05:45~10:00",
        "Evaluation": 0,
        "State": 0,
        "Latitude": 24.491624,
        "Longitude": 118.411931,
        "Icon": "http://taokehang.nqu.edu.tw/Upload/Store/6709949c-7af1-4710-aaa2-6142f3738870.jpg",
        "IsTop": false,
        "Sort": 0,
        "BrowseCount": 13,
        "Collection": 1,
        "Remark": "1.賣完會提早打烊\r\n2.位於菜市場內部",
        "SuggestDishes": "包子/花卷/辣肉包",
        "AvgCost": 10,
        "Information": "中興肉包饅頭店金門沙美老街，在早晨時分是相當熱鬧的，熙來人往的三民路上多是買早餐的在地居民。",
        "FullAddress": "890金門縣金沙鎮沙美路61-1號",
        "IsShowCollection": true,
        "IsCollection": false,
        "Distance": 12875184,
        "UpdateTime": "2018-03-15T09:26:26.1075516+08:00",
        "CreateTime": "2018-03-15T09:26:26.1075516+08:00"
      },
      {
        "Id": "882452bf-94dc-4a8e-b366-09318b61a1f8",
        "Name": "合泉商店",
        "Category": 2,
        "Phone": "082-332908",
        "Zipcode": "891",
        "City": "金門縣",
        "Area": "金湖鎮",
        "Address": "小徑村63號",
        "Business": "0830~1700",
        "Evaluation": 4,
        "State": 0,
        "Latitude": 24.449459,
        "Longitude": 118.385522,
        "Icon": "http://taokehang.nqu.edu.tw/Upload/Store/57177ff7-cd28-4fbc-b051-889a43fd4693.jpg",
        "IsTop": false,
        "Sort": 0,
        "BrowseCount": 33,
        "Collection": 4,
        "Remark": "",
        "SuggestDishes": "蛋香、蛋狗、炒泡麵\r\n",
        "AvgCost": 70,
        "Information": "金門有項特殊的美食叫做「蛋狗」、「蛋香」，販售蛋狗、蛋香的「合泉平價中心」，合泉平價中心就位於小徑村邱良功墓旁，因為隱身在巷弄裡，一定要各來一份的啊!這裡除了是一般雜貨店之外，也有兼賣吃的，但就只有蛋狗、蛋香、炒泡麵、雜七雜八等四樣；蛋狗、蛋香其實就是蔥油派中間放上兩顆蛋，再夾上熱狗或香腸，當初阿兵哥來消費的時候都是飢腸轆轆的狀態，「蛋餅、熱狗」、「蛋餅、香腸」講快了就變成蛋狗、蛋香了!大家難得來一趟，當然是四種通通來一份囉!",
        "FullAddress": "891金門縣金湖鎮小徑村63號",
        "IsShowCollection": true,
        "IsCollection": false,
        "Distance": 12873599,
        "UpdateTime": "2018-03-15T09:26:26.1075516+08:00",
        "CreateTime": "2018-03-15T09:26:26.1075516+08:00"
      },
      {
        "Id": "de763173-02a1-48f0-8150-e7809995bd09",
        "Name": "阿鴻小吃",
        "Category": 2,
        "Phone": "082-333233",
        "Zipcode": "891",
        "City": "金門縣",
        "Area": "金湖鎮",
        "Address": "新市里自強路19號",
        "Business": "9:30 ~18:00",
        "Evaluation": 0,
        "State": 0,
        "Latitude": 24.441329,
        "Longitude": 118.415939,
        "Icon": "http://taokehang.nqu.edu.tw/Upload/Store/370f0a86-1098-4336-8f68-e09db64d2ae9.PNG",
        "IsTop": false,
        "Sort": 0,
        "BrowseCount": 10,
        "Collection": 0,
        "Remark": "",
        "SuggestDishes": "肉羹麵,魷魚米粉,小籠包\r\n",
        "AvgCost": 70,
        "Information": "有賣滷味，小吃輕便食物。",
        "FullAddress": "891金門縣金湖鎮新市里自強路19號",
        "IsShowCollection": true,
        "IsCollection": false,
        "Distance": 12876805,
        "UpdateTime": "2018-03-15T09:26:26.1075516+08:00",
        "CreateTime": "2018-03-15T09:26:26.1075516+08:00"
      },
      {
        "Id": "ef6e63bc-488a-4b46-9268-ac28f632a43f",
        "Name": "辣哈哈滷味",
        "Category": 2,
        "Phone": "0970-370335",
        "Zipcode": "891",
        "City": "金門縣",
        "Area": "金湖鎮",
        "Address": "中正路31號",
        "Business": "16:00–22:00",
        "Evaluation": 0,
        "State": 0,
        "Latitude": 24.440811,
        "Longitude": 118.415738,
        "Icon": "http://taokehang.nqu.edu.tw/Upload/Store/53eb7569-d4df-4b5a-ae88-3f5ef1c5ba37.jpg",
        "IsTop": false,
        "Sort": 0,
        "BrowseCount": 23,
        "Collection": 1,
        "Remark": "",
        "SuggestDishes": "豬頭皮,韓國年糕     \r\n",
        "AvgCost": 60,
        "Information": "金門當地知名滷味店。",
        "FullAddress": "891金門縣金湖鎮中正路31號",
        "IsShowCollection": true,
        "IsCollection": false,
        "Distance": 12876797,
        "UpdateTime": "2018-03-15T09:26:26.1075516+08:00",
        "CreateTime": "2018-03-15T09:26:26.1075516+08:00"
      },
      {
        "Id": "62460fb0-e687-4a4b-9394-b1396eb080e4",
        "Name": "21金小火鍋臭臭鍋",
        "Category": 2,
        "Phone": "082-330333",
        "Zipcode": "891",
        "City": "金門縣",
        "Area": "金湖鎮",
        "Address": "中正路3號",
        "Business": "11:00~21:00",
        "Evaluation": 0,
        "State": 0,
        "Latitude": 24.440329,
        "Longitude": 118.416803,
        "Icon": "http://taokehang.nqu.edu.tw/Upload/Store/885b1bf2-c812-424d-9ae2-617cf7761de3.jpg",
        "IsTop": false,
        "Sort": 0,
        "BrowseCount": 14,
        "Collection": 1,
        "Remark": "",
        "SuggestDishes": "鴨血臭臭鍋,黃金南瓜鍋,麻辣大腸鍋  \r\n",
        "AvgCost": 120,
        "Information": "連鎖火鍋店。",
        "FullAddress": "891金門縣金湖鎮中正路3號",
        "IsShowCollection": true,
        "IsCollection": false,
        "Distance": 12876914,
        "UpdateTime": "2018-03-15T09:26:26.1075516+08:00",
        "CreateTime": "2018-03-15T09:26:26.1075516+08:00"
      },
      {
        "Id": "2670a89f-bdfa-4504-89b8-18296879df09",
        "Name": "不一樣雞排複合式餐飲",
        "Category": 2,
        "Phone": "0937-605958",
        "Zipcode": "891",
        "City": "金門縣",
        "Area": "金湖鎮",
        "Address": "中正路26號",
        "Business": "10:00~21:00",
        "Evaluation": 0,
        "State": 0,
        "Latitude": 24.440709,
        "Longitude": 118.416119,
        "Icon": "http://taokehang.nqu.edu.tw/Upload/Store/09498bf6-2a3e-47e9-bb28-bf83fa57ea1d.jpg",
        "IsTop": false,
        "Sort": 0,
        "BrowseCount": 19,
        "Collection": 2,
        "Remark": "",
        "SuggestDishes": "香雞排,炸雞棺材板,雞米花\r\n",
        "AvgCost": 60,
        "Information": null,
        "FullAddress": "891金門縣金湖鎮中正路26號",
        "IsShowCollection": true,
        "IsCollection": false,
        "Distance": 12876838,
        "UpdateTime": "2018-03-15T09:26:26.1075516+08:00",
        "CreateTime": "2018-03-15T09:26:26.1075516+08:00"
      },
      {
        "Id": "5d040d4a-eecf-49f3-8d6b-7af5f454b24d",
        "Name": "大鍋湯",
        "Category": 2,
        "Phone": "082-330815",
        "Zipcode": "891",
        "City": "金門縣",
        "Area": "金湖鎮",
        "Address": "新市里中正路7-1號",
        "Business": "10:00~21:00",
        "Evaluation": 0,
        "State": 0,
        "Latitude": 24.440289,
        "Longitude": 118.416588,
        "Icon": "http://taokehang.nqu.edu.tw/Upload/Store/fb02769d-26f7-4e9a-a628-8910b54c1d0f.jpg",
        "IsTop": false,
        "Sort": 0,
        "BrowseCount": 29,
        "Collection": 1,
        "Remark": "",
        "SuggestDishes": "大鍋湯泡飯,餛飩麵,手工乾麵 \r\n",
        "AvgCost": 60,
        "Information": "連鎖餐飲店。",
        "FullAddress": "891金門縣金湖鎮新市里中正路7-1號",
        "IsShowCollection": true,
        "IsCollection": false,
        "Distance": 12876894,
        "UpdateTime": "2018-03-15T09:26:26.1075516+08:00",
        "CreateTime": "2018-03-15T09:26:26.1075516+08:00"
      },
      {
        "Id": "56a14b4d-1b10-4559-8260-7b6476c9ef55",
        "Name": "阿亮雞排",
        "Category": 2,
        "Phone": "082-332081",
        "Zipcode": "891",
        "City": "金門縣",
        "Area": "金湖鎮",
        "Address": "中正路59之5號",
        "Business": "13:00~20:00",
        "Evaluation": 0,
        "State": 0,
        "Latitude": 24.44122,
        "Longitude": 118.415066,
        "Icon": "http://taokehang.nqu.edu.tw/Upload/Store/",
        "IsTop": false,
        "Sort": 0,
        "BrowseCount": 11,
        "Collection": 1,
        "Remark": "",
        "SuggestDishes": "香雞排",
        "AvgCost": 50,
        "Information": null,
        "FullAddress": "891金門縣金湖鎮中正路59之5號",
        "IsShowCollection": true,
        "IsCollection": false,
        "Distance": 12876721,
        "UpdateTime": "2018-03-15T09:26:26.1075516+08:00",
        "CreateTime": "2018-03-15T09:26:26.1075516+08:00"
      },
      {
        "Id": "4f504241-9a77-42c7-9b1a-f6a06e2c9b27",
        "Name": "海鷗餐飲",
        "Category": 2,
        "Phone": "082-332020",
        "Zipcode": "891",
        "City": "金門縣",
        "Area": "金湖鎮",
        "Address": "中正路36號",
        "Business": "",
        "Evaluation": 5,
        "State": 0,
        "Latitude": 24.44072,
        "Longitude": 118.415886,
        "Icon": "http://taokehang.nqu.edu.tw/Upload/Store/",
        "IsTop": false,
        "Sort": 0,
        "BrowseCount": 19,
        "Collection": 1,
        "Remark": "",
        "SuggestDishes": "肉燥飯加蛋,黑胡椒豬排飯,蔥爆牛肉飯\r\n",
        "AvgCost": 75,
        "Information": null,
        "FullAddress": "891金門縣金湖鎮中正路36號",
        "IsShowCollection": true,
        "IsCollection": false,
        "Distance": 12876814,
        "UpdateTime": "2018-03-15T09:26:26.1075516+08:00",
        "CreateTime": "2018-03-15T09:26:26.1075516+08:00"
      },
      {
        "Id": "d7c58403-d8ac-4cc1-81e4-834540e9865b",
        "Name": "四合味便當",
        "Category": 2,
        "Phone": "082-352611",
        "Zipcode": "890",
        "City": "金門縣",
        "Area": "金沙鎮",
        "Address": "五福街38號",
        "Business": "10:30~13:30        17:00~19:00",
        "Evaluation": 0,
        "State": 0,
        "Latitude": 24.48788,
        "Longitude": 118.413719,
        "Icon": "http://taokehang.nqu.edu.tw/Upload/Store/",
        "IsTop": false,
        "Sort": 0,
        "BrowseCount": 7,
        "Collection": 0,
        "Remark": "",
        "SuggestDishes": "三寶飯,三杯雞飯,鱈魚飯\r\n",
        "AvgCost": 80,
        "Information": null,
        "FullAddress": "890金門縣金沙鎮五福街38號",
        "IsShowCollection": true,
        "IsCollection": false,
        "Distance": 12875452,
        "UpdateTime": "2018-03-15T09:26:26.1075516+08:00",
        "CreateTime": "2018-03-15T09:26:26.1075516+08:00"
      },
      {
        "Id": "ace3c414-502a-419d-9093-0dfb47e9f654",
        "Name": "伍師傅車輪餅",
        "Category": 0,
        "Phone": "082-332662",
        "Zipcode": "891",
        "City": "金門縣",
        "Area": "金湖鎮",
        "Address": "新市里中正路36號",
        "Business": "14:00~賣完",
        "Evaluation": 4.4,
        "State": 0,
        "Latitude": 24.440811,
        "Longitude": 118.415954,
        "Icon": "http://taokehang.nqu.edu.tw/Upload/Store/82541380-6894-4d11-a905-c951708b4b0d.jpg",
        "IsTop": false,
        "Sort": 0,
        "BrowseCount": 461,
        "Collection": 5,
        "Remark": "",
        "SuggestDishes": "奶油車輪餅,紅豆車輪餅,奶油珍珠",
        "AvgCost": 20,
        "Information": "伍師傅車輪餅有十種口味可選擇， 這家的口味真的很多而且也很特別分量也很飽滿，咬下去滿嘴的餡，特別的是他的餅皮是脆皮的。",
        "FullAddress": "891金門縣金湖鎮新市里中正路36號",
        "IsShowCollection": true,
        "IsCollection": true,
        "Distance": 12876819,
        "UpdateTime": "2018-03-15T09:26:26.1075516+08:00",
        "CreateTime": "2018-03-15T09:26:26.1075516+08:00"
      },
      {
        "Id": "3382fb63-8300-4ede-aebe-b72647f203d9",
        "Name": "山外滷味",
        "Category": 2,
        "Phone": "082-333431",
        "Zipcode": "891",
        "City": "金門縣",
        "Area": "金湖鎮",
        "Address": "復興路136號",
        "Business": "16:00~23:00",
        "Evaluation": 0,
        "State": 0,
        "Latitude": 24.44233,
        "Longitude": 118.414331,
        "Icon": "http://taokehang.nqu.edu.tw/Upload/Store/2121d5fc-3c30-4f97-a1da-74621600a2f5.PNG",
        "IsTop": false,
        "Sort": 0,
        "BrowseCount": 51,
        "Collection": 0,
        "Remark": "",
        "SuggestDishes": "綜合滷味套餐,戰地炒泡麵",
        "AvgCost": 70,
        "Information": "晚上才營業的山外滷味，是山外最受歡迎的滷味攤喔！",
        "FullAddress": "891金門縣金湖鎮復興路136號",
        "IsShowCollection": true,
        "IsCollection": false,
        "Distance": 12876621,
        "UpdateTime": "2018-03-15T09:26:26.1075516+08:00",
        "CreateTime": "2018-03-15T09:26:26.1075516+08:00"
      },
      {
        "Id": "6231e37f-aa96-4e03-ac6b-bc5976b5b880",
        "Name": "張記牛肉麵",
        "Category": 2,
        "Phone": "082-337366",
        "Zipcode": "891",
        "City": "金門縣",
        "Area": "金湖鎮",
        "Address": "黃海路6號",
        "Business": "10:00~21:00 周二公休",
        "Evaluation": 5,
        "State": 0,
        "Latitude": 24.442785,
        "Longitude": 118.414669,
        "Icon": "http://taokehang.nqu.edu.tw/Upload/Store/bcf309c8-f218-4dd3-b860-6a2ea8f1003a.PNG",
        "IsTop": false,
        "Sort": 0,
        "BrowseCount": 25,
        "Collection": 3,
        "Remark": "",
        "SuggestDishes": "牛肚麵,招牌年肉麵,牛肉湯餃\r\n",
        "AvgCost": 100,
        "Information": "山外張記牛肉麵，其實不若山外其他家麵館名氣響亮。推薦招牌牛肉麵、頂級牛肉麵及牛肉湯餃。",
        "FullAddress": "891金門縣金湖鎮黃海路6號",
        "IsShowCollection": true,
        "IsCollection": false,
        "Distance": 12876644,
        "UpdateTime": "2018-03-15T09:26:26.1075516+08:00",
        "CreateTime": "2018-03-15T09:26:26.1075516+08:00"
      },
      {
        "Id": "efc3dc71-c1f5-430d-8401-b9d5892f24f4",
        "Name": "榕榕園麵館",
        "Category": 2,
        "Phone": "082-331993",
        "Zipcode": "891",
        "City": "金門縣",
        "Area": "金湖鎮",
        "Address": "黃海路7號",
        "Business": "11:00~20:00 周四公休",
        "Evaluation": 0,
        "State": 0,
        "Latitude": 24.442838,
        "Longitude": 118.414708,
        "Icon": "http://taokehang.nqu.edu.tw/Upload/Store/d37d8bea-ee3f-41ef-914c-9a3bdc920ef1.PNG",
        "IsTop": false,
        "Sort": 0,
        "BrowseCount": 8,
        "Collection": 2,
        "Remark": "",
        "SuggestDishes": "醬拌麵疙瘩,醬拌拉麵,醬拌金門麵線\r\n",
        "AvgCost": 0,
        "Information": "金城美食-榕榕園拉麵館(金城店) 山外老牌的榕榕園拉麵館，在金城也可以吃得到。兩家店最大的特點，版主如是想-就是位置絕佳吧！都在車站的步行距離內。",
        "FullAddress": "891金門縣金湖鎮黃海路7號",
        "IsShowCollection": true,
        "IsCollection": false,
        "Distance": 12876646,
        "UpdateTime": "2018-03-15T09:26:26.1075516+08:00",
        "CreateTime": "2018-03-15T09:26:26.1075516+08:00"
      },
      {
        "Id": "403a95da-116f-400d-a651-ca6ca258dcd8",
        "Name": "新加坡小館",
        "Category": 2,
        "Phone": "082-337867",
        "Zipcode": "891",
        "City": "金門縣",
        "Area": "金湖鎮",
        "Address": "黃海路4號",
        "Business": "11:00~20:30 周三公休",
        "Evaluation": 0,
        "State": 0,
        "Latitude": 24.442557,
        "Longitude": 118.4145,
        "Icon": "http://taokehang.nqu.edu.tw/Upload/Store/9af5a478-96a0-4144-9942-d441dbc010a4.PNG",
        "IsTop": false,
        "Sort": 0,
        "BrowseCount": 11,
        "Collection": 1,
        "Remark": "",
        "SuggestDishes": "海南雞飯,新加坡蝦麵,南洋咖哩飯\r\n",
        "AvgCost": 100,
        "Information": "一碗溫柔的咖哩黃，透著濃濃椰香，一舀入口是溫醇的辣，一點兒不嗆。在金門，能夠嚐到口味道地的南洋風味咖哩飯，也獨有在黃海路上的新加坡小館。\r\n　　夏日裡，店裡備有清爽的檸檬水；起風了，就換上了微甜的熱麥茶。入冬之後，預計推出紫糯米甜品，也將陸續推出其他新加坡料理，「新加坡的美食小吃太多了。」\r\n",
        "FullAddress": "891金門縣金湖鎮黃海路4號",
        "IsShowCollection": true,
        "IsCollection": false,
        "Distance": 12876632,
        "UpdateTime": "2018-03-15T09:26:26.1075516+08:00",
        "CreateTime": "2018-03-15T09:26:26.1075516+08:00"
      },
      {
        "Id": "19489233-b636-4265-aa48-4cdafe734d1f",
        "Name": "六羡茶食堂",
        "Category": 2,
        "Phone": "082-312421",
        "Zipcode": "892",
        "City": "金門縣",
        "Area": "金寧鄉",
        "Address": "環島北路一段130號",
        "Business": "11:00～22:00 星期三公休",
        "Evaluation": 4,
        "State": 0,
        "Latitude": 24.443109,
        "Longitude": 118.325144,
        "Icon": "http://taokehang.nqu.edu.tw/Upload/Store/94b387b8-37ba-483b-b8c7-6c138a847276.JPG",
        "IsTop": false,
        "Sort": 0,
        "BrowseCount": 125,
        "Collection": 3,
        "Remark": "",
        "SuggestDishes": "大師炸醬麵，北海道牛奶鍋，紅油皮蛋乾拌麵",
        "AvgCost": 100,
        "Information": "六羡的堅持\r\n酵素純豬油：無瘦肉精、無農藥殘留，有產銷履歷的安心健康豬。\r\n青草地鮮乳：渾然天成的濃醇香，不使用任何添加物，健康零負擔。\r\n手工日曬關廟麵：遵循古法精製，日光自然曬乾；無防腐劑，香Q可口！",
        "FullAddress": "892金門縣金寧鄉環島北路一段130號",
        "IsShowCollection": true,
        "IsCollection": false,
        "Distance": 12867781,
        "UpdateTime": "2018-03-15T09:26:26.1075516+08:00",
        "CreateTime": "2018-03-15T09:26:26.1075516+08:00"
      },
      {
        "Id": "8e32b771-6bbe-487a-9682-f849a2c4412e",
        "Name": "迎冰館",
        "Category": 0,
        "Phone": "082-320775",
        "Zipcode": "891",
        "City": "金門縣",
        "Area": "金湖鎮",
        "Address": "中山路8-8號北棟一樓",
        "Business": "10:00~22:00",
        "Evaluation": 5,
        "State": 0,
        "Latitude": 24.441391,
        "Longitude": 118.364432,
        "Icon": "http://taokehang.nqu.edu.tw/Upload/Store/9d10717a-c2b2-4613-9e3b-b37b3ecb968d.png",
        "IsTop": false,
        "Sort": 0,
        "BrowseCount": 235,
        "Collection": 1,
        "Remark": "",
        "SuggestDishes": "新鮮芒果雪花冰,芒果爽,樂此不疲,芭樂冰沙",
        "AvgCost": 140,
        "Information": "原「冰館」創始人的創意產品，一大盤剉冰加上芒果塊，加上一球芒果雪酪，再淋上芒果醬，就成了台灣冰品國際化的經典代表作。",
        "FullAddress": "891金門縣金湖鎮中山路8-8號北棟一樓",
        "IsShowCollection": true,
        "IsCollection": false,
        "Distance": 12871709,
        "UpdateTime": "2018-03-15T09:26:26.1075516+08:00",
        "CreateTime": "2018-03-15T09:26:26.1075516+08:00"
      },
      {
        "Id": "6eca793f-7e69-4578-b93c-3ccf5ff1edb6",
        "Name": "Balance",
        "Category": 0,
        "Phone": "082-312601",
        "Zipcode": "893",
        "City": "金門縣",
        "Area": "金城鎮",
        "Address": "模範街5號",
        "Business": "11:00~21:00",
        "Evaluation": 0,
        "State": 0,
        "Latitude": 24.432051,
        "Longitude": 118.319326,
        "Icon": "http://taokehang.nqu.edu.tw/Upload/Store/e36cdc29-ffbc-4943-b1d1-ca4fc858e4f5.png",
        "IsTop": false,
        "Sort": 0,
        "BrowseCount": 85,
        "Collection": 2,
        "Remark": "",
        "SuggestDishes": "牛奶口味 , 芋頭口味",
        "AvgCost": 70,
        "Information": "「Balance平衡式」希望能提供每個人找到生活與健康的平衡方式，從日常飲食的小確幸補充您一天的新能量！ 選用當地最新鮮乳源，和當季採摘的鮮果，美國進口堅果，除了原料之外，製作過程絕不添加一滴水。",
        "FullAddress": "893金門縣金城鎮模範街5號",
        "IsShowCollection": true,
        "IsCollection": false,
        "Distance": 12867474,
        "UpdateTime": "2018-03-15T09:26:26.1075516+08:00",
        "CreateTime": "2018-03-15T09:26:26.1075516+08:00"
      },
      {
        "Id": "788ec2dd-0bad-4104-a423-1c3935819204",
        "Name": "聖利冰店",
        "Category": 0,
        "Phone": "082-325635",
        "Zipcode": "893",
        "City": "金門縣",
        "Area": "金城鎮",
        "Address": "莒光路129號",
        "Business": "14:30~19:00",
        "Evaluation": 0,
        "State": 0,
        "Latitude": 24.433037,
        "Longitude": 118.316611,
        "Icon": "http://taokehang.nqu.edu.tw/Upload/Store/3761b421-5fae-4a57-b2a3-ba64ce1638b5.png",
        "IsTop": false,
        "Sort": 0,
        "BrowseCount": 63,
        "Collection": 2,
        "Remark": "",
        "SuggestDishes": "剉冰,香蕉水,豆花",
        "AvgCost": 35,
        "Information": "曾在電影「夏天協奏曲」中出現的冰店，也陪伴許多在地人成長的老店，加上店裡書架上有五花八門的漫畫和小說，頗有獨特風味",
        "FullAddress": "893金門縣金城鎮莒光路129號",
        "IsShowCollection": true,
        "IsCollection": false,
        "Distance": 12867181,
        "UpdateTime": "2018-03-15T09:26:26.1075516+08:00",
        "CreateTime": "2018-03-15T09:26:26.1075516+08:00"
      },
      {
        "Id": "9959131e-212f-4f0e-9ffa-a9f8daeebfea",
        "Name": "壹咖啡(金城)",
        "Category": 1,
        "Phone": "082-373728",
        "Zipcode": "893",
        "City": "金門縣",
        "Area": "金城鎮",
        "Address": "中興路163之3號",
        "Business": "09:00~20:00",
        "Evaluation": 0,
        "State": 0,
        "Latitude": 24.434166,
        "Longitude": 118.318849,
        "Icon": "http://taokehang.nqu.edu.tw/Upload/Store/142632bd-0260-41e0-8469-a13ab7bf05ed.png",
        "IsTop": false,
        "Sort": 0,
        "BrowseCount": 44,
        "Collection": 2,
        "Remark": "",
        "SuggestDishes": "卡布奇諾,招牌特調 ",
        "AvgCost": 55,
        "Information": "走過十個年頭，壹咖啡不曾停下腳步\r\n一再創新改變\r\n秉持著老字號精神『誰說35元沒有好咖啡』，打破咖啡館百元咖啡神話\r\n沒有一杯動輒百元那樣地讓人感到距離，而是以嚴選原豆與杯杯現煮的用心，讓大眾都能品味好喝又平價的咖啡。",
        "FullAddress": "893金門縣金城鎮中興路163之3號",
        "IsShowCollection": true,
        "IsCollection": false,
        "Distance": 12867375,
        "UpdateTime": "2018-03-15T09:26:26.1075516+08:00",
        "CreateTime": "2018-03-15T09:26:26.1075516+08:00"
      },
      {
        "Id": "e5005794-3a58-40bb-a11b-4772d8596e09",
        "Name": "喫茶小舖(金城)",
        "Category": 1,
        "Phone": "082-373101",
        "Zipcode": "893",
        "City": "金門縣",
        "Area": "金城鎮",
        "Address": "民生路5巷9號",
        "Business": "9:30~21:00",
        "Evaluation": 5,
        "State": 0,
        "Latitude": 24.433186,
        "Longitude": 118.319801,
        "Icon": "http://taokehang.nqu.edu.tw/Upload/Store/cf960db2-7fe5-4244-a2cd-86bf8de29cc1.png",
        "IsTop": false,
        "Sort": 0,
        "BrowseCount": 76,
        "Collection": 3,
        "Remark": "",
        "SuggestDishes": "咖啡紅茶、咖紅慕思、咖紅波霸",
        "AvgCost": 50,
        "Information": "一口好茶，一個知己\r\nA Cup of Tea, Keep Going on First Intention.\r\n用微笑妝點日常，用好茶為生活加味。\r\n親土喫茶，淺沏暖情。\r\n以茶代酒尋知己，回歸初心覓知音。\r\n喫茶小舖，不容小覷。",
        "FullAddress": "893金門縣金城鎮民生路5巷9號",
        "IsShowCollection": true,
        "IsCollection": false,
        "Distance": 12867493,
        "UpdateTime": "2018-03-15T09:26:26.1075516+08:00",
        "CreateTime": "2018-03-15T09:26:26.1075516+08:00"
      },
      {
        "Id": "4a73b403-1bdd-4000-bb86-2d9b2bcc88f9",
        "Name": "六合極品海鮮鍋物專門店",
        "Category": 2,
        "Phone": "082-312-606",
        "Zipcode": "893",
        "City": "金門縣",
        "Area": "金城鎮",
        "Address": "模範街22號",
        "Business": "11:30~15:00  17:30~22:00",
        "Evaluation": 0,
        "State": 0,
        "Latitude": 24.43169,
        "Longitude": 118.3191,
        "Icon": "http://taokehang.nqu.edu.tw/Upload/Store/9d879906-9545-4d77-b287-602663322519.jpg",
        "IsTop": false,
        "Sort": 0,
        "BrowseCount": 21,
        "Collection": 0,
        "Remark": "",
        "SuggestDishes": "頂級饗宴,嚴選鍋物",
        "AvgCost": 360,
        "Information": "「六合極品海鮮鍋物專門店」新進駐店家保有外觀懷舊復古風格，裏頭裝潢結合現代.設計樣貌，餐廳也提供各式新鮮.高檔食材，讓喜愛吃鍋物的朋友可以有所期待呢。",
        "FullAddress": "893金門縣金城鎮模範街22號",
        "IsShowCollection": true,
        "IsCollection": false,
        "Distance": 12867460,
        "UpdateTime": "2018-03-15T09:26:26.1075516+08:00",
        "CreateTime": "2018-03-15T09:26:26.1075516+08:00"
      },
      {
        "Id": "b29495c8-059e-42e1-810b-2bd99ed92314",
        "Name": "新大廟口活海鮮",
        "Category": 3,
        "Phone": "082-320753",
        "Zipcode": "893",
        "City": "金門縣",
        "Area": "金城鎮",
        "Address": "外武廟戲臺",
        "Business": "17:00~00:00",
        "Evaluation": 0,
        "State": 0,
        "Latitude": 24.430298,
        "Longitude": 118.317322,
        "Icon": "http://taokehang.nqu.edu.tw/Upload/Store/19b19740-044c-4d8d-ac67-19c7f4e42573.jpg",
        "IsTop": false,
        "Sort": 0,
        "BrowseCount": 26,
        "Collection": 1,
        "Remark": "",
        "SuggestDishes": "紅燒豬筋肉,麻辣臭豆腐,金門凍肉",
        "AvgCost": 400,
        "Information": "新大廟口活海鮮，不只網路上蠻多人推薦的，就連食尚玩家也有來採訪！",
        "FullAddress": "893金門縣金城鎮外武廟戲臺",
        "IsShowCollection": true,
        "IsCollection": false,
        "Distance": 12867318,
        "UpdateTime": "2018-03-15T09:26:26.1075516+08:00",
        "CreateTime": "2018-03-15T09:26:26.1075516+08:00"
      },
      {
        "Id": "3170f3dc-a138-49ef-84c0-8d7734d866d9",
        "Name": "一品花雕雞",
        "Category": 2,
        "Phone": "082-311-116",
        "Zipcode": "893",
        "City": "金門縣",
        "Area": "金城鎮",
        "Address": "民族路26、28號",
        "Business": "11:00~14:00 17:30~21:00",
        "Evaluation": 0,
        "State": 0,
        "Latitude": 24.43079,
        "Longitude": 118.320663,
        "Icon": "http://taokehang.nqu.edu.tw/Upload/Store/b28cee6f-ef9d-48e0-a8f8-1c154379ccdc.jpg",
        "IsTop": false,
        "Sort": 0,
        "BrowseCount": 47,
        "Collection": 2,
        "Remark": "",
        "SuggestDishes": "花雕雞一品,招牌中卷,淑妍土魠魚",
        "AvgCost": 500,
        "Information": "一個充滿驚喜、美味的另類火鍋餐廳，招牌花雕雞的獨特美味、乾至湯的另類獨特煮法。",
        "FullAddress": "893金門縣金城鎮民族路26、28號",
        "IsShowCollection": true,
        "IsCollection": false,
        "Distance": 12867636,
        "UpdateTime": "2018-03-15T09:26:26.1075516+08:00",
        "CreateTime": "2018-03-15T09:26:26.1075516+08:00"
      },
      {
        "Id": "5261d3b9-7d62-4d8b-a4a4-90dc38076201",
        "Name": "信源海產店",
        "Category": 2,
        "Phone": "082-371437",
        "Zipcode": "893",
        "City": "金門縣",
        "Area": "金城鎮",
        "Address": "環島北路15號",
        "Business": "11:00~14:00   17:00~21:00",
        "Evaluation": 0,
        "State": 0,
        "Latitude": 24.441011,
        "Longitude": 118.322174,
        "Icon": "http://taokehang.nqu.edu.tw/Upload/Store/9fb53242-a6ef-4964-82f4-2bec550d614c.png",
        "IsTop": false,
        "Sort": 0,
        "BrowseCount": 43,
        "Collection": 1,
        "Remark": "",
        "SuggestDishes": "蛤蜊拌麵",
        "AvgCost": 150,
        "Information": "金門人推薦在地海鮮餐廳-信源海產店，原本是藏身於巷弄民宅中的美味餐廳，後來在金城鎮也開設的分店。",
        "FullAddress": "893金門縣金城鎮環島北路15號",
        "IsShowCollection": true,
        "IsCollection": false,
        "Distance": 12867538,
        "UpdateTime": "2018-03-15T09:26:26.1075516+08:00",
        "CreateTime": "2018-03-15T09:26:26.1075516+08:00"
      },
      {
        "Id": "623cc6a5-8aeb-45c3-90b6-f5f51bfda6c2",
        "Name": "BOSS咖啡",
        "Category": 2,
        "Phone": "082-312381",
        "Zipcode": "893",
        "City": "金門縣",
        "Area": "金城鎮",
        "Address": "朱浦北路一號",
        "Business": "10:00~18:00",
        "Evaluation": 0,
        "State": 0,
        "Latitude": 24.432373,
        "Longitude": 118.319283,
        "Icon": "http://taokehang.nqu.edu.tw/Upload/Store/c3ef3319-262b-41f4-bba9-97dd6aa18103.jpg",
        "IsTop": false,
        "Sort": 0,
        "BrowseCount": 21,
        "Collection": 1,
        "Remark": "",
        "SuggestDishes": "奶油燻雞義大利麵,奶油燻雞燉飯",
        "AvgCost": 200,
        "Information": "Boss的餐點價位相對親民可以接受，在炎炎夏日沒地方去的人，可以考慮來這避暑吹冷氣聊聊天。",
        "FullAddress": "893金門縣金城鎮朱浦北路一號",
        "IsShowCollection": true,
        "IsCollection": false,
        "Distance": 12867462,
        "UpdateTime": "2018-03-15T09:26:26.1075516+08:00",
        "CreateTime": "2018-03-15T09:26:26.1075516+08:00"
      },
      {
        "Id": "2e958ba4-bfea-46fa-8981-47dba484a736",
        "Name": "明野日式料理和牛海鮮專賣店",
        "Category": 2,
        "Phone": "082-371077",
        "Zipcode": "893",
        "City": "金門縣",
        "Area": "金城鎮",
        "Address": "南門里浯江北提路88-3號",
        "Business": "11:00~14:00  17:00~24:00",
        "Evaluation": 0,
        "State": 0,
        "Latitude": 24.429295,
        "Longitude": 118.316231,
        "Icon": "http://taokehang.nqu.edu.tw/Upload/Store/063074b6-9d39-4456-ae13-00710c5845fe.jpg",
        "IsTop": false,
        "Sort": 0,
        "BrowseCount": 30,
        "Collection": 4,
        "Remark": "",
        "SuggestDishes": "多利魚片鍋,活菌梅花豬,美國嚴選培根牛",
        "AvgCost": 350,
        "Information": "明野和牛海鮮鍋物，金門第一間賣頂級個人鍋物結合日式料理專賣店，標榜金門產地直送蔬菜，美澳頂級9+和牛，嚴選海鮮食材，健康湯底為主打「明野和牛海鮮鍋物」主打等台灣及金門新鮮食材產地直送，店內有一百多個寬敞的舒適座位，明野的老闆本身經營水產批發對挑選食材很慎重。呂老闆說，海鮮分別來自澎湖與金門產地直送的新鮮食材，例如澎湖的「軟絲」，台灣的龍膽石斑，還有金門獨有的冬蟹等。\r\n另外有來自金門吃酒糟的金門牛，肉丸餃類有基隆三記手工魚餃、海瑞貢丸等，均不添加化學原料和防腐劑。每日以白甘蔗、各式蔬果慢火熬煮的健康湯底，愛吃辣的朋友更不能錯過明野廚師團隊特別到四川取經，湯底加入陳年豆瓣醬，花椒粒、蔥段、薑片、辣椒粉、甜酒釀、桂皮、八角,等數十多種辛香料與中藥材熬製而成，口感帶麻、辣、鮮、香，湯頭醇厚有層次不油膩，無添加牛油所以不吃牛的朋友可以享用，店內的米飯採用日本一級米品種(越光米飯)香Q有嚼勁，用餐時均會附上餐前沙拉幫助開胃另外店內飲料更是不惜成本供應八寶菊花茶讓人免費飲用，明野就是這麼嚴選食材與講究健康安全。",
        "FullAddress": "893金門縣金城鎮南門里浯江北提路88-3號",
        "IsShowCollection": true,
        "IsCollection": false,
        "Distance": 12867234,
        "UpdateTime": "2018-03-15T09:26:26.1075516+08:00",
        "CreateTime": "2018-03-15T09:26:26.1075516+08:00"
      },
      {
        "Id": "402b9818-5476-47c5-9114-3f7bc7bf8ec3",
        "Name": "中壢新永明川牛肉麵",
        "Category": 2,
        "Phone": "082-321932",
        "Zipcode": "893",
        "City": "金門縣",
        "Area": "金城鎮",
        "Address": "民生路45巷2弄8號",
        "Business": "10:00~20:30",
        "Evaluation": 0,
        "State": 0,
        "Latitude": 24.436115,
        "Longitude": 118.318245,
        "Icon": "http://taokehang.nqu.edu.tw/Upload/Store/df2d8a6a-96d3-4b18-9d7b-8a533e2d0aee.jpg",
        "IsTop": false,
        "Sort": 0,
        "BrowseCount": 38,
        "Collection": 1,
        "Remark": "",
        "SuggestDishes": "招牌麵,牛肉麵,牛雜麵",
        "AvgCost": 200,
        "Information": "店內主要販售麵類、水餃、湯類及小菜，店內招牌菜如店名為牛肉麵。",
        "FullAddress": "893金門縣金城鎮民生路45巷2弄8號",
        "IsShowCollection": true,
        "IsCollection": false,
        "Distance": 12867268,
        "UpdateTime": "2018-03-15T09:26:26.1075516+08:00",
        "CreateTime": "2018-03-15T09:26:26.1075516+08:00"
      },
      {
        "Id": "89bf9305-c811-443b-9617-a367326127a3",
        "Name": "吐司森林",
        "Category": 2,
        "Phone": "082-316377",
        "Zipcode": "893",
        "City": "金門縣",
        "Area": "金城鎮",
        "Address": "民生路45巷3號",
        "Business": "06:00~21:00",
        "Evaluation": 0,
        "State": 0,
        "Latitude": 24.435532,
        "Longitude": 118.318771,
        "Icon": "http://taokehang.nqu.edu.tw/Upload/Store/bcbaf713-3744-461d-95a1-39543f028ba8.jpg",
        "IsTop": false,
        "Sort": 0,
        "BrowseCount": 34,
        "Collection": 2,
        "Remark": "",
        "SuggestDishes": "洋蔥燻雞起司胖盒子拼盤,紐澳良香草雞腿佐白醬義大利麵     ",
        "AvgCost": 200,
        "Information": " 2006年土司森林是從一個小小間的早午餐店開始的，草創時期以西式早午餐+手搖飲料為主要經營型態。  2011年土司森林開始轉變為二代店的形象，並開始導入商業午餐、下午茶相結合，顛覆傳統的經營模式。  2013年後全面轉型成全日食的三代店型態，經歷過市場考驗與客群範圍擴大，土司森林全新型態更具市場競爭優勢，也讓經營者的投資效益發揮到最佳化。",
        "FullAddress": "893金門縣金城鎮民生路45巷3號",
        "IsShowCollection": true,
        "IsCollection": false,
        "Distance": 12867334,
        "UpdateTime": "2018-03-15T09:26:26.1075516+08:00",
        "CreateTime": "2018-03-15T09:26:26.1075516+08:00"
      },
      {
        "Id": "2bc62c45-1f72-4a97-b333-b82146acc7b0",
        "Name": "上牛屋",
        "Category": 2,
        "Phone": "082-323307",
        "Zipcode": "893",
        "City": "金門縣",
        "Area": "金城鎮",
        "Address": "菜市場路53號",
        "Business": "平日17:30~20:30   假日11:00~13:30   17:30~20:30",
        "Evaluation": 5,
        "State": 0,
        "Latitude": 24.432144,
        "Longitude": 118.319168,
        "Icon": "http://taokehang.nqu.edu.tw/Upload/Store/1c8ea10a-eca0-4017-878f-dcbf06bc60e6.jpg",
        "IsTop": false,
        "Sort": 0,
        "BrowseCount": 82,
        "Collection": 1,
        "Remark": "",
        "SuggestDishes": "牛肉鍋,龍骨鍋,麻油雞鍋",
        "AvgCost": 250,
        "Information": "由金大學長開的，這家店的品質優量，超級推薦大家來吃",
        "FullAddress": "893金門縣金城鎮菜市場路53號",
        "IsShowCollection": true,
        "IsCollection": false,
        "Distance": 12867456,
        "UpdateTime": "2018-03-15T09:26:26.1075516+08:00",
        "CreateTime": "2018-03-15T09:26:26.1075516+08:00"
      }
    ]
  }
}
